stop_id,stop_name,stop_lat,stop_lon,zone_id,stop_url,location_type,parent_station
"de:08211:1847:2:11","Baden-Baden Bahnhof","48.78965901","8.19082978","0480","","","Pde:08211:1847"
"de:08211:1847:2:12","Baden-Baden Bahnhof","48.78955248","8.19071300","0480","","","Pde:08211:1847"
"de:08211:1847:2:13","Baden-Baden Bahnhof","48.78944003","8.19060520","0480","","","Pde:08211:1847"
"de:08211:1847:2:21","Baden-Baden Bahnhof","48.78970636","8.19110826","0480","","","Pde:08211:1847"
"de:08211:1847:2:22","Baden-Baden Bahnhof","48.78964125","8.19103639","0480","","","Pde:08211:1847"
"de:08211:1847:2:23","Baden-Baden Bahnhof","48.78953472","8.19092859","0480","","","Pde:08211:1847"
"de:08211:1847:2:24","Baden-Baden Bahnhof","48.78945187","8.19084774","0480","","","Pde:08211:1847"
"de:08211:1847:2:31","Baden-Baden Bahnhof","48.78953472","8.19117114","0480","","","Pde:08211:1847"
"de:08211:1847:2:41","Baden-Baden Bahnhof","48.78945779","8.19126995","0480","","","Pde:08211:1847"
"de:08211:1847:3:1","Baden-Baden","48.79020941","8.19099148","0480","","","Pde:08211:1847"
"de:08211:1847:4:2","Baden-Baden","48.79025084","8.19093758","0480","","","Pde:08211:1847"
"de:08211:1847:4:3","Baden-Baden","48.79029818","8.19080283","0480","","","Pde:08211:1847"
"de:08211:1847:5:4","Baden-Baden","48.79032186","8.19073096","0480","","","Pde:08211:1847"
"de:08211:31836:0:1","Steinbach Alte Ziegelei","48.73212951","8.16709629","0480","","","Pde:08211:31836"
"de:08211:31836:0:2","Steinbach Alte Ziegelei","48.73225394","8.16723104","0480","","","Pde:08211:31836"
"de:08211:31837:0:1","Baden-Baden Wörthstraße","48.78370482","8.20294805","0480","","","Pde:08211:31837"
"de:08211:31837:0:2","Baden-Baden Wörthstraße","48.78333192","8.20346009","0480","","","Pde:08211:31837"
"de:08211:31837:0:3","Baden-Baden Wörthstraße","48.78401261","8.20186109","0480","","","Pde:08211:31837"
"de:08211:31838:0:1","Ebersteinburg Wolfsschlucht","48.77439924","8.27665482","0480","","","Pde:08211:31838"
"de:08211:31838:0:2","Ebersteinburg Wolfsschlucht","48.77416835","8.27575651","0480","","","Pde:08211:31838"
"de:08211:31838:0:3","Ebersteinburg Wolfsschlucht","48.77460052","8.27570261","0480","","","Pde:08211:31838"
"de:08211:31839:0:1","Baden-Baden Wilhelm-Drapp-Str","48.79564208","8.19803427","0480","","","Pde:08211:31839"
"de:08211:31839:0:2","Baden-Baden Wilhelm-Drapp-Str","48.79547047","8.19806122","0480","","","Pde:08211:31839"
"de:08211:31840:0:1","Baden-Baden Werderstraße","48.75901639","8.23084972","0480","","",""
"de:08211:31841:0:1","Baden-Baden Waldseestr./Verfassungsplatz","48.76994119","8.22934954","0480","","","Pde:08211:31841"
"de:08211:31841:0:2","Baden-Baden Waldseestr./Verfassungsplatz","48.77013657","8.22829851","0480","","","Pde:08211:31841"
"de:08211:31842:0:1","Ebersteinburg Waldkapelle","48.77640612","8.28705731","0480","","","Pde:08211:31842"
"de:08211:31842:0:2","Ebersteinburg Waldkapelle","48.77624629","8.28658120","0480","","","Pde:08211:31842"
"de:08211:31843:0:1","Baden-Baden Waldcafé","48.76236218","8.26046718","0480","","","Pde:08211:31843"
"de:08211:31843:0:2","Baden-Baden Waldcafé","48.76243324","8.26055701","0480","","","Pde:08211:31843"
"de:08211:31844:0:1","Baden-Baden Voglergasse","48.74705857","8.24447717","0480","","",""
"de:08211:31845:0:1","Varnhalt Kirche","48.73533489","8.17925948","0480","","","Pde:08211:31845"
"de:08211:31845:0:2","Varnhalt Kirche","48.73510383","8.17968169","0480","","","Pde:08211:31845"
"de:08211:31845:0:4","Varnhalt Kirche","48.73446987","8.17920558","0480","","","Pde:08211:31845"
"de:08211:31846:0:1","Baden-Baden U.Prinz-Weimar-Str","48.76370043","8.25058571","0480","","","Pde:08211:31846"
"de:08211:31846:0:2","Baden-Baden U.Prinz-Weimar-Str","48.76384846","8.25124148","0480","","","Pde:08211:31846"
"de:08211:31847:0:1","Steinbach Umweger Str.","48.72864542","8.17659148","0480","","","Pde:08211:31847"
"de:08211:31847:0:2","Steinbach Umweger Str.","48.72784547","8.17603453","0480","","","Pde:08211:31847"
"de:08211:31848:0:91","Steinbach Satzweg (Ersatzhalt)","48.72670774","8.17565723","0480","","","Pde:08211:31848"
"de:08211:31848:0:92","Steinbach Satzweg (Ersatzhalt)","48.72677885","8.17546859","0480","","","Pde:08211:31848"
"de:08211:31849:0:1","Baden-Baden Tiergarten / cts-Klinik","48.74903693","8.21832721","0480","","","Pde:08211:31849"
"de:08211:31849:0:2","Baden-Baden Tiergarten / cts-Klinik","48.74912578","8.21818348","0480","","","Pde:08211:31849"
"de:08211:31849:0:3","Baden-Baden Tiergarten / cts-Klinik","48.74918501","8.21831823","0480","","","Pde:08211:31849"
"de:08211:31851:0:1","Lichtental Steinackergasse","48.74215380","8.26801303","0480","","","Pde:08211:31851"
"de:08211:31851:0:2","Lichtental Steinackergasse","48.74172135","8.26887541","0480","","","Pde:08211:31851"
"de:08211:31852:0:1","Balg Klinikum Mittelbaden","48.78642750","8.21818348","0480","","","Pde:08211:31852"
"de:08211:31852:0:2","Balg Klinikum Mittelbaden","48.78653995","8.21812958","0480","","","Pde:08211:31852"
"de:08211:31853:0:1","Baden-Baden Hauptfriedhof","48.75868476","8.25060368","0480","","",""
"de:08211:31854:0:1","Baden-Baden Stadelhoferstraße","48.75323625","8.23031972","0480","","","Pde:08211:31854"
"de:08211:31854:0:2","Baden-Baden Stadelhoferstraße","48.75338431","8.22976276","0480","","","Pde:08211:31854"
"de:08211:31855:0:1","Baden-Baden Solmsstraße","48.76014155","8.23454180","0480","","",""
"de:08211:31856:0:1","Baden-Baden Sinzheimer Str.","48.78710223","8.19440507","0480","","","Pde:08211:31856"
"de:08211:31856:0:2","Baden-Baden Sinzheimer Str.","48.78693650","8.19447694","0480","","","Pde:08211:31856"
"de:08211:31856:0:3","Baden-Baden Sinzheimer Str.","48.78703712","8.19389303","0480","","","Pde:08211:31856"
"de:08211:31856:0:4","Baden-Baden Sinzheimer Str.","48.78704896","8.19377625","0480","","","Pde:08211:31856"
"de:08211:31864:0:1","Baden-Baden Schirmhofweg","48.75030446","8.22172284","0480","","","Pde:08211:31864"
"de:08211:31864:0:2","Baden-Baden Schirmhofweg","48.75093822","8.22269302","0480","","","Pde:08211:31864"
"de:08211:31866:0:1","Lichtental Sauersbosch","48.73986118","8.27644821","0480","","","Pde:08211:31866"
"de:08211:31866:0:2","Lichtental Sauersbosch","48.74008038","8.27543311","0480","","","Pde:08211:31866"
"de:08211:31867:0:1","Sandweier Südring","48.80505022","8.18827856","0480","","","Pde:08211:31867"
"de:08211:31867:0:2","Sandweier Südring","48.80500880","8.18790127","0480","","","Pde:08211:31867"
"de:08211:31868:0:1","Sandweier Nord","48.81345688","8.19551000","0480","","","Pde:08211:31868"
"de:08211:31868:0:2","Sandweier Nord","48.81343322","8.19531237","0480","","","Pde:08211:31868"
"de:08211:31869:0:1","Sandweier Mühlstraße","48.81229742","8.19845648","0480","","","Pde:08211:31869"
"de:08211:31869:0:2","Sandweier Mühlstraße","48.81236249","8.19831274","0480","","","Pde:08211:31869"
"de:08211:31870:0:1","Sandweier Mitte","48.80810896","8.19544712","0480","","","Pde:08211:31870"
"de:08211:31870:0:2","Sandweier Mitte","48.80819770","8.19530339","0480","","","Pde:08211:31870"
"de:08211:31871:0:1","Sandweier Autobahnkirche","48.80930401","8.17487570","0480","","","Pde:08211:31871"
"de:08211:31871:0:2","Sandweier Autobahnkirche","48.80879523","8.17610639","0480","","","Pde:08211:31871"
"de:08211:31873:1:1","Baden-Baden Rheumazentrum","48.76339844","8.24711821","0480","","",""
"de:08211:31880:0:1","Baden-Baden Quettigstaffeln","48.75276836","8.23549401","0480","","",""
"de:08211:31882:0:1","Baden-Baden Obere Schußbach","48.78703712","8.21460818","0480","","","Pde:08211:31882"
"de:08211:31882:0:2","Baden-Baden Obere Schußbach","48.78720284","8.21441055","0480","","","Pde:08211:31882"
"de:08211:31883:0:1","Baden-Baden Ob.Prinz-Weimar-S","48.76070412","8.24979519","0480","","","Pde:08211:31883"
"de:08211:31883:0:2","Baden-Baden Ob.Prinz-Weimar-S","48.76062121","8.24939095","0480","","","Pde:08211:31883"
"de:08211:31885:0:1","Baden-Baden Obere Breite","48.78120101","8.18853009","0480","","",""
"de:08211:31886:0:1","Baden-Baden Kaiser-Wilhelm-S.","48.75581844","8.23232296","0480","","",""
"de:08211:31887:0:1","Oberbeuern","48.73777582","8.28578170","0480","","",""
"de:08211:31888:0:1","Baden-Baden Neues Schloss","48.76479587","8.24133306","0480","","",""
"de:08211:31889:0:1","BAD Moltkestr./Rosengarten","48.75771355","8.23030175","0480","","",""
"de:08211:31890:0:1","Baden-Baden Merkurwald","48.76285366","8.26454553","0480","","",""
"de:08211:31891:0:1","Baden-Baden Maximilianstraße","48.75192733","8.24873518","0480","","",""
"de:08211:31893:0:2","BAD Maximilianstr./Falkenstr.","48.75177334","8.24872620","0480","","",""
"de:08211:31895:0:1","Baden-Baden Marktplatz/Rath.","48.76294841","8.24056051","0480","","",""
"de:08211:31896:0:1","Baden-Baden Markgrafenplatz","48.75893941","8.24704635","0480","","","Pde:08211:31896"
"de:08211:31896:0:2","Baden-Baden Markgrafenplatz","48.75901047","8.24691160","0480","","","Pde:08211:31896"
"de:08211:31896:0:3","Baden-Baden Markgrafenplatz","48.75872622","8.24722601","0480","","","Pde:08211:31896"
"de:08211:31897:0:1","Baden-Baden Mariahalden","48.74926201","8.23377823","0480","","",""
"de:08211:31898:0:1","Malschbach","48.72238768","8.24228528","0480","","",""
"de:08211:31900:0:1","BAD Lilienmattstr./Kl. Annaberg","48.76502680","8.25277760","0480","","","Pde:08211:31900"
"de:08211:31900:0:2","BAD Lilienmattstr./Kl. Annaberg","48.76555971","8.25309201","0480","","","Pde:08211:31900"
"de:08211:31901:0:1","BAD Lichtentaler All./Museen","48.75474057","8.23868303","0480","","","Pde:08211:31901"
"de:08211:31901:0:2","BAD Lichtentaler All./Museen","48.75481756","8.23844947","0480","","","Pde:08211:31901"
"de:08211:31902:0:1","Lichtental","48.74259216","8.26408739","0480","","","Pde:08211:31902"
"de:08211:31902:0:2","Lichtental","48.74246184","8.26429400","0480","","","Pde:08211:31902"
"de:08211:31903:0:1","Lichtental Lerchenbergweg","48.73913250","8.28125420","0480","","","Pde:08211:31903"
"de:08211:31903:0:2","Lichtental Lerchenbergweg","48.73901402","8.28126318","0480","","","Pde:08211:31903"
"de:08211:31904:0:1","Baden-Baden Leopoldstraße","48.76587945","8.24339919","0480","","",""
"de:08211:31905:0:1","Baden-Baden Kurfürstenstraße","48.76158053","8.24810636","0480","","","Pde:08211:31905"
"de:08211:31905:0:2","Baden-Baden Kurfürstenstraße","48.76130221","8.24810636","0480","","","Pde:08211:31905"
"de:08211:31906:0:1","Baden-Baden Kuppenheimer Str.","48.79194935","8.19452185","0480","","","Pde:08211:31906"
"de:08211:31906:0:2","Baden-Baden Kuppenheimer Str.","48.79253523","8.19625560","0480","","","Pde:08211:31906"
"de:08211:31906:0:3","Baden-Baden Kuppenheimer Str.","48.79242279","8.19480932","0480","","","Pde:08211:31906"
"de:08211:31907:0:1","Baden-Baden Kronprinzenstr.","48.75890980","8.23583537","0480","","",""
"de:08211:31908:0:1","Lichtental Klosterplatz","48.74635369","8.25598459","0480","","","Pde:08211:31908"
"de:08211:31908:0:2","Lichtental Klosterplatz","48.74631815","8.25582289","0480","","","Pde:08211:31908"
"de:08211:31909:0:1","BAD Klostergut Fremersberg","48.74449369","8.19742341","0480","","","Pde:08211:31909"
"de:08211:31909:0:2","BAD Klostergut Fremersberg","48.74464771","8.19728867","0480","","","Pde:08211:31909"
"de:08211:31910:0:1","Baden-Baden Klinik Dr. Dengler","48.76374188","8.23509876","0480","","",""
"de:08211:31911:0:1","Baden-Baden Kettenbrücke","48.75039923","8.24473768","0480","","","Pde:08211:31911"
"de:08211:31911:0:2","Baden-Baden Kettenbrücke","48.75109221","8.24489938","0480","","","Pde:08211:31911"
"de:08211:31920:0:1","Lichtental Höllhäuserweg","48.73916212","8.25788901","0480","","","Pde:08211:31920"
"de:08211:31920:0:2","Lichtental Höllhäuserweg","48.73872965","8.25743986","0480","","","Pde:08211:31920"
"de:08211:31921:1:1","Baden-Baden Hubertusstraße","48.78048476","8.20376552","0480","","","Pde:08211:31921"
"de:08211:31921:1:4","Baden-Baden Hubertusstraße","48.78036045","8.20381942","0480","","","Pde:08211:31921"
"de:08211:31922:0:1","Baden-Baden Otto-Flake-Str.","48.76615183","8.23082278","0480","","",""
"de:08211:31923:0:1","Steinbach Hohlgasse","48.73042305","8.17115667","0480","","","Pde:08211:31923"
"de:08211:31923:0:2","Steinbach Hohlgasse","48.73019789","8.17143515","0480","","","Pde:08211:31923"
"de:08211:31924:0:1","Baden-Baden Hochstraße","48.76443468","8.23191872","0480","","",""
"de:08211:31925:1:2","Baden-Baden Charles-de-Gaulle-Platz","48.78507801","8.19224912","0480","","","Pde:08211:31925"
"de:08211:31925:2:3","Baden-Baden Charles-de-Gaulle-Platz","48.78563438","8.19190776","0480","","","Pde:08211:31925"
"de:08211:31925:2:4","Baden-Baden Charles-de-Gaulle-Platz","48.78494780","8.19088368","0480","","","Pde:08211:31925"
"de:08211:31926:0:1","Geroldsau Heschmattweg","48.72958757","8.25385558","0480","","","Pde:08211:31926"
"de:08211:31926:0:2","Geroldsau Heschmattweg","48.73002605","8.25397236","0480","","","Pde:08211:31926"
"de:08211:31927:0:1","Baden-Baden Herrengut","48.76679130","8.24237511","0480","","",""
"de:08211:31928:0:1","Baden-Baden Robert-Koch-Straße","48.75297565","8.24395614","0480","","",""
"de:08211:31929:0:1","Baden-Baden Herchenbachstraße","48.74974178","8.23766794","0480","","",""
"de:08211:31930:0:2","Haueneberstein Siemensstraße","48.81096047","8.21806670","0480","","","Pde:08211:31930"
"de:08211:31930:0:3","Haueneberstein Siemensstraße","48.81057594","8.21816551","0480","","","Pde:08211:31930"
"de:08211:31931:0:1","Haueneberstein Industriegebiet","48.81207854","8.21114069","0480","","",""
"de:08211:31932:0:1","Baden-Baden Hans-Thoma-Str.","48.74895401","8.24080306","0480","","",""
"de:08211:31933:0:1","Baden-Baden H.-Bredow-Str/SWR","48.75226493","8.22560356","0480","","","Pde:08211:31933"
"de:08211:31933:0:2","Baden-Baden H.-Bredow-Str/SWR","48.75241299","8.22551373","0480","","","Pde:08211:31933"
"de:08211:31934:0:1","Baden-Baden Große Dollenstr.","48.77390195","8.22179471","0480","","","Pde:08211:31934"
"de:08211:31934:0:2","Baden-Baden Große Dollenstr.","48.77404995","8.22340269","0480","","","Pde:08211:31934"
"de:08211:31935:0:1","Baden-Baden Golfplatz","48.74692233","8.21167069","0480","","","Pde:08211:31935"
"de:08211:31935:0:2","Baden-Baden Golfplatz","48.74703488","8.21157188","0480","","","Pde:08211:31935"
"de:08211:31936:0:1","Balg Gaßeck","48.78975370","8.22750799","0480","","","Pde:08211:31936"
"de:08211:31936:0:2","Balg Gaßeck","48.79017390","8.22778647","0480","","","Pde:08211:31936"
"de:08211:31937:0:1","Baden-Baden Gausplatz","48.75482348","8.24224036","0480","","","Pde:08211:31937"
"de:08211:31938:0:1","Varnhalt Gallenbach","48.74034697","8.18037339","0480","","","Pde:08211:31938"
"de:08211:31938:0:2","Varnhalt Gallenbach","48.73954128","8.17968169","0480","","","Pde:08211:31938"
"de:08211:31940:1:1","Baden-Baden Friedrichshöhe","48.76152131","8.25327167","0480","","","Pde:08211:31940"
"de:08211:31940:1:2","Baden-Baden Friedrichshöhe","48.76198912","8.25278658","0480","","","Pde:08211:31940"
"de:08211:31940:2:3","Baden-Baden Friedrichshöhe","48.76213716","8.25323574","0480","","","Pde:08211:31940"
"de:08211:31940:2:4","Baden-Baden Friedrichshöhe","48.76222598","8.25266082","0480","","","Pde:08211:31940"
"de:08211:31944:0:1","Baden-Baden Falkenstraße","48.75304080","8.24651634","0480","","",""
"de:08211:31945:0:1","Baden-Baden Entenstallhütte","48.74634776","8.20674793","0480","","","Pde:08211:31945"
"de:08211:31945:0:2","Baden-Baden Entenstallhütte","48.74644846","8.20664013","0480","","","Pde:08211:31945"
"de:08211:31946:0:1","Baden-Baden Engel/Höhenblick","48.76730643","8.23841354","0480","","","Pde:08211:31946"
"de:08211:31946:0:2","Baden-Baden Engel/Höhenblick","48.76682090","8.23906033","0480","","","Pde:08211:31946"
"de:08211:31948:0:1","Lichtental Eckerlestraße","48.74891254","8.25369388","0480","","","Pde:08211:31948"
"de:08211:31948:0:2","Lichtental Eckerlestraße","48.74857493","8.25402626","0480","","","Pde:08211:31948"
"de:08211:31949:0:1","Baden-Baden Ebertplatz","48.77213178","8.22552271","0480","","","Pde:08211:31949"
"de:08211:31949:0:2","Baden-Baden Ebertplatz","48.77158118","8.22602577","0480","","","Pde:08211:31949"
"de:08211:31950:0:1","Ebersteinburg Klinik","48.77473669","8.27334004","0480","","","Pde:08211:31950"
"de:08211:31950:0:2","Ebersteinburg Klinik","48.77483733","8.27302563","0480","","","Pde:08211:31950"
"de:08211:31952:0:1","Ebersteinburg Kapelle","48.77792751","8.27122900","0480","","",""
"de:08211:31953:0:1","Baden-Baden Dreieichenkapelle","48.77805183","8.21778822","0480","","","Pde:08211:31953"
"de:08211:31953:0:2","Baden-Baden Dreieichenkapelle","48.77801039","8.21750076","0480","","","Pde:08211:31953"
"de:08211:31954:0:1","Baden-Baden Bäderviertel","48.76237994","8.24242003","0480","","",""
"de:08211:31956:0:1","Neuweier Buchgasse","48.72554628","8.17329466","0480","","","Pde:08211:31956"
"de:08211:31956:0:2","Neuweier Buchgasse","48.72536258","8.17342941","0480","","","Pde:08211:31956"
"de:08211:31956:0:91","Neuweier Buchgasse","48.72530924","8.17376179","0480","","","Pde:08211:31956"
"de:08211:31956:0:92","Neuweier Buchgasse","48.72549295","8.17355518","0480","","","Pde:08211:31956"
"de:08211:31957:0:1","Baden-Baden Oskar-Schlemmer-Platz","48.75377520","8.23413756","0480","","","Pde:08211:31957"
"de:08211:31957:0:2","Baden-Baden Oskar-Schlemmer-Platz","48.75386996","8.23394891","0480","","","Pde:08211:31957"
"de:08211:31958:0:1","Baden-Baden Birkenbuckel","48.75168449","8.23594317","0480","","",""
"de:08211:31959:0:1","Lichtental Bildeiche","48.74159102","8.27113917","0480","","","Pde:08211:31959"
"de:08211:31959:0:2","Lichtental Bildeiche","48.74139553","8.27187578","0480","","","Pde:08211:31959"
"de:08211:31960:0:1","Baden-Baden Bertholdplatz","48.75522028","8.24359682","0480","","","Pde:08211:31960"
"de:08211:31960:0:2","Baden-Baden Bertholdplatz","48.75549864","8.24353394","0480","","","Pde:08211:31960"
"de:08211:31962:0:1","Balg Baumackerstraße","48.78750469","8.22176776","0480","","","Pde:08211:31962"
"de:08211:31962:0:2","Balg Baumackerstraße","48.78761714","8.22183064","0480","","","Pde:08211:31962"
"de:08211:31963:0:1","Baden-Baden Bauernfeldstraße","48.78157392","8.19986683","0480","","","Pde:08211:31963"
"de:08211:31963:0:2","Baden-Baden Bauernfeldstraße","48.78144370","8.19990276","0480","","","Pde:08211:31963"
"de:08211:31964:0:1","Balg Kirche","48.78864696","8.22572933","0480","","","Pde:08211:31964"
"de:08211:31964:0:2","Balg Kirche","48.78854635","8.22540593","0480","","","Pde:08211:31964"
"de:08211:31965:0:1","Balg Friedhof","48.79052900","8.23093956","0480","","",""
"de:08211:31967:0:1","Lichtental Aubrücke","48.75023339","8.25140318","0480","","","Pde:08211:31967"
"de:08211:31967:0:2","Lichtental Aubrücke","48.74974770","8.25200505","0480","","","Pde:08211:31967"
"de:08211:31968:0:1","Varnhalt Am Kirchberg","48.73749737","8.17787607","0480","","","Pde:08211:31968"
"de:08211:31968:0:2","Varnhalt Am Kirchberg","48.73744998","8.17768743","0480","","","Pde:08211:31968"
"de:08211:32170:0:1","Geroldsau Geroldsauer Mühle","48.73501495","8.25546356","0480","","","Pde:08211:32170"
"de:08211:32170:0:2","Geroldsau Geroldsauer Mühle","48.73505643","8.25524797","0480","","","Pde:08211:32170"
"de:08211:32209:1:1","BAD Hindenburgplatz/Stadtbib.","48.76421559","8.23703013","0480","","","Pde:08211:32209"
"de:08211:32209:1:2","BAD Hindenburgplatz/Stadtbib.","48.76393728","8.23685047","0480","","","Pde:08211:32209"
"de:08211:32254:2:4","BAD Hindenburgplatz (Kaiserallee)","48.76393728","8.23631148","0480","","","Pde:08211:32254"
"de:08211:32356:0:1","Steinbach Vimbucher Str.","48.73102743","8.15105238","0480","","","Pde:08211:32356"
"de:08211:32356:0:2","Steinbach Vimbucher Str.","48.73100965","8.15089068","0480","","","Pde:08211:32356"
"de:08211:32357:0:1","Steinbach Schule","48.73004975","8.16318862","0480","","","Pde:08211:32357"
"de:08211:32357:0:2","Steinbach Schule","48.72991939","8.16293709","0480","","","Pde:08211:32357"
"de:08211:32360:0:1","Steinbach Steinbacher Str./Postplatz","48.72785732","8.15900247","0480","","","Pde:08211:32360"
"de:08211:32360:0:2","Steinbach Steinbacher Str./Postplatz","48.72798176","8.15925400","0480","","","Pde:08211:32360"
"de:08211:32361:0:1","Steinbach Yburgstraße/Postplatz","48.72817730","8.15992773","0480","","",""
"de:08211:32362:0:1","Steinbach Alte Landstr.","48.73281682","8.16493135","0480","","","Pde:08211:32362"
"de:08211:32362:0:2","Steinbach Alte Landstr.","48.73276942","8.16476965","0480","","","Pde:08211:32362"
"de:08211:32363:0:1","Neuweier Winzergenossenschaft","48.72369737","8.17816353","0480","","","Pde:08211:32363"
"de:08211:32363:0:2","Neuweier Winzergenossenschaft","48.72355514","8.17818150","0480","","","Pde:08211:32363"
"de:08211:32364:0:1","Neuweier Schneckenbach","48.71751014","8.18072373","0480","","","Pde:08211:32364"
"de:08211:32364:0:2","Neuweier Schneckenbach","48.71746865","8.18049017","0480","","","Pde:08211:32364"
"de:08211:32365:0:1","Steinbach Poststraße/Postplatz","48.72883504","8.15796042","0480","","",""
"de:08211:32366:0:1","Neuweier Kirche","48.72149281","8.18599684","0480","","","Pde:08211:32366"
"de:08211:32366:0:2","Neuweier Kirche","48.72152837","8.18588006","0480","","","Pde:08211:32366"
"de:08211:32368:0:1","Steinbach Grabenstraße/Postplatz","48.72868098","8.15957739","0480","","","Pde:08211:32368"
"de:08211:32368:0:92","Steinbach Grabenstraße/Postplatz","48.72866320","8.15973909","0480","","","Pde:08211:32368"
"de:08211:32369:0:91","Steinbach Yburgstr./Häfnergasse","48.72810620","8.16308082","0480","","",""
"de:08211:32370:1:1","Lichtental Brahmsplatz","48.74432783","8.25943412","0480","","","Pde:08211:32370"
"de:08211:32370:1:2","Lichtental Brahmsplatz","48.74456478","8.25936225","0480","","","Pde:08211:32370"
"de:08211:32371:0:1","Haueneberstein Waldstraße","48.80822729","8.22463338","0480","","","Pde:08211:32371"
"de:08211:32371:0:2","Haueneberstein Waldstraße","48.80887214","8.22511847","0480","","","Pde:08211:32371"
"de:08211:32373:0:1","Haueneberstein Bahnhofstraße","48.80763567","8.22246844","0480","","","Pde:08211:32373"
"de:08211:32373:0:2","Haueneberstein Bahnhofstraße","48.80770075","8.22248641","0480","","","Pde:08211:32373"
"de:08211:32374:0:1","Geroldsau Schule","48.72734179","8.24936400","0480","","","Pde:08211:32374"
"de:08211:32374:0:2","Geroldsau Schule","48.72778029","8.24946282","0480","","","Pde:08211:32374"
"de:08211:32375:0:1","Geroldsau Schmiegrankweg","48.73213543","8.25733206","0480","","","Pde:08211:32375"
"de:08211:32375:0:2","Geroldsau Schmiegrankweg","48.73185695","8.25682900","0480","","","Pde:08211:32375"
"de:08211:32376:0:1","Geroldsau Malschbacher Str.","48.72457443","8.24752246","0480","","","Pde:08211:32376"
"de:08211:32376:0:2","Geroldsau Malschbacher Str.","48.72508406","8.24737873","0480","","","Pde:08211:32376"
"de:08211:32379:0:1","Baden-Baden Schweigrother Platz","48.78171007","8.20956864","0480","","","Pde:08211:32379"
"de:08211:32379:0:2","Baden-Baden Schweigrother Platz","48.78155024","8.20945185","0480","","","Pde:08211:32379"
"de:08211:32379:0:3","Baden-Baden Schweigrother Platz","48.78171007","8.21014356","0480","","","Pde:08211:32379"
"de:08211:32380:1:1","Baden-Baden Rotenbachtalstraße","48.76431033","8.24984909","0480","","","Pde:08211:32380"
"de:08211:32380:1:2","Baden-Baden Rotenbachtalstraße","48.76451165","8.25002876","0480","","","Pde:08211:32380"
"de:08211:32380:2:3","Baden-Baden Rotenbachtalstraße","48.76465376","8.25012757","0480","","","Pde:08211:32380"
"de:08211:32380:2:4","Baden-Baden Rotenbachtalstraße","48.76469521","8.24998384","0480","","","Pde:08211:32380"
"de:08211:32384:0:1","Baden-Baden Königsberger Str.","48.78152657","8.18721855","0480","","","Pde:08211:32384"
"de:08211:32384:0:2","Baden-Baden Königsberger Str.","48.78137267","8.18725448","0480","","","Pde:08211:32384"
"de:08211:32385:0:1","Baden-Baden Kleine Dollenstr.","48.77626997","8.21953994","0480","","","Pde:08211:32385"
"de:08211:32385:0:2","Baden-Baden Kleine Dollenstr.","48.77595621","8.22042028","0480","","","Pde:08211:32385"
"de:08211:32387:0:1","Baden-Baden Caracalla Therme","48.76250429","8.24433344","0480","","","Pde:08211:32387"
"de:08211:32387:0:2","Baden-Baden Caracalla Therme","48.76256351","8.24411784","0480","","","Pde:08211:32387"
"de:08211:32388:1:1","BAD Augustapl. / Museum Burda","48.75816363","8.24145883","0480","","","Pde:08211:32388"
"de:08211:32388:1:2","BAD Augustapl. / Museum Burda","48.75831168","8.24118035","0480","","","Pde:08211:32388"
"de:08211:32388:1:3","BAD Augustaplatz / Museum Burda","48.75857817","8.24107255","0480","","","Pde:08211:32388"
"de:08211:32388:2:4","BAD Augustaplatz / Museum Burda","48.75820508","8.24107255","0480","","","Pde:08211:32388"
"de:08211:32388:2:5","BAD Augustapl. / Museum Burda","48.75831168","8.24096475","0480","","","Pde:08211:32388"
"de:08211:32389:0:1","Baden-Baden Festspielhaus","48.76763800","8.23277212","0480","","","Pde:08211:32389"
"de:08211:32389:0:2","Baden-Baden Festspielhaus","48.76772089","8.23244873","0480","","","Pde:08211:32389"
"de:08211:32392:1:11","BAD Leopoldsplatz (Luisenstraße)","48.76168120","8.23862015","0480","","","Pde:08211:32392"
"de:08211:32392:1:12","BAD Leopoldsplatz (Luisenstraße)","48.76125484","8.23942864","0480","","","Pde:08211:32392"
"de:08211:32393:1:21","Baden-Baden Leopoldspl. (Sophienstr.)","48.76114232","8.24047966","0480","","","Pde:08211:32393"
"de:08211:32393:1:22","Baden-Baden Leopoldspl. (Sophienstr.)","48.76124891","8.24013830","0480","","","Pde:08211:32393"
"de:08211:32549:0:1","BAD Altenpflegeheim Schafberg","48.74971216","8.26563249","0480","","",""
"de:08211:32832:0:1","Varnhalt Im Lindenbosch","48.73743813","8.17738200","0480","","","Pde:08211:32832"
"de:08211:32832:0:2","Varnhalt Im Lindenbosch","48.73607548","8.17529791","0480","","","Pde:08211:32832"
"de:08211:33088:1:1","Baden-Baden Pariser Platz Cité","48.77902857","8.20133108","0480","","","Pde:08211:33088"
"de:08211:33089:1:1","Baden-Baden Campus Cité / VHS","48.77999345","8.19555492","0480","","","Pde:08211:33089"
"de:08211:33090:1:1","Baden-Baden Shopping Cité","48.78357460","8.19237488","0480","","",""
"de:08211:33091:0:1","Baden-Baden Gewerbepark Cité","48.78407772","8.19524051","0480","","","Pde:08211:33091"
"de:08211:33091:0:2","Baden-Baden Gewerbepark Cité","48.78405996","8.19505186","0480","","","Pde:08211:33091"
"de:08211:33108:1:1","Baden-Baden Kino Cité / P+R","48.78118917","8.19464762","0480","","","Pde:08211:33108"
"de:08211:33108:1:2","Baden-Baden Kino Cité / P+R","48.78115365","8.19448592","0480","","","Pde:08211:33108"
"de:08211:33109:0:1","Baden-Baden Bretagne","48.77939558","8.19065012","0480","","","Pde:08211:33109"
"de:08211:33109:0:2","Baden-Baden Bretagne","48.77911736","8.19117114","0480","","","Pde:08211:33109"
"de:08211:33151:1:1","Haueneberstein R.-Bosch-Straße","48.81222643","8.21510226","0480","","","Pde:08211:33151"
"de:08211:33151:2:2","Haueneberstein R.-Bosch-Straße","48.81152247","8.21428479","0480","","","Pde:08211:33151"
"de:08211:34755:0:1","Baden-Baden Zimmerplatz","48.71550090","8.22735528","0480","","","Pde:08211:34755"
"de:08211:34755:0:2","Baden-Baden Zimmerplatz","48.71559573","8.22701392","0480","","","Pde:08211:34755"
"de:08211:34756:0:1","Baden-Baden Schwanenwasen","48.68793841","8.23042752","0480","","","Pde:08211:34756"
"de:08211:34756:0:2","Baden-Baden Schwanenwasen","48.68795027","8.23025684","0480","","","Pde:08211:34756"
"de:08211:34757:0:1","Baden-Baden Dr. Fecht Waldheim","48.67924974","8.23407468","0480","","","Pde:08211:34757"
"de:08211:34757:0:2","Baden-Baden Dr. Fecht Waldheim","48.67815836","8.23416451","0480","","","Pde:08211:34757"
"de:08211:34769:0:1","Baden-Baden Ooswinkel","48.77724082","8.21264087","0480","","","Pde:08211:34769"
"de:08211:34769:0:2","Baden-Baden Ooswinkel","48.77712834","8.21257799","0480","","","Pde:08211:34769"
"de:08211:34770:0:1","Baden-Baden Im Metzenacker","48.77972707","8.20830201","0480","","","Pde:08211:34770"
"de:08211:34770:0:2","Baden-Baden Im Metzenacker","48.77960276","8.20830201","0480","","","Pde:08211:34770"
"de:08211:34771:0:1","Baden-Baden Schwarzwaldstraße","48.78016511","8.20552622","0480","","","Pde:08211:34771"
"de:08211:34771:0:2","Baden-Baden Schwarzwaldstraße","48.78030126","8.20543639","0480","","","Pde:08211:34771"
"de:08211:34772:0:1","Baden-Baden Schußbachstraße","48.78648077","8.20848167","0480","","","Pde:08211:34772"
"de:08211:34772:0:2","Baden-Baden Schußbachstraße","48.78662282","8.20870625","0480","","","Pde:08211:34772"
"de:08211:34774:0:1","Baden-Baden Kurhaus","48.75938355","8.23744336","0480","","",""
"de:08211:34791:0:2","Baden-Baden Römerweg","48.78416650","8.20285822","0480","","","Pde:08211:34791"
"de:08211:35110:1:1","Baden-Baden Haueneberstein","48.81197798","8.20912846","0480","","","Pde:08211:35110"
"de:08211:35110:2:2","Baden-Baden Haueneberstein","48.81174135","8.20891287","0480","","","Pde:08211:35110"
"de:08211:35113:1:1","Baden-Baden Rebland","48.73391886","8.14667758","0480","","","Pde:08211:35113"
"de:08211:35113:2:2","Baden-Baden Rebland","48.73380629","8.14653385","0480","","","Pde:08211:35113"
"de:08211:35113:5:51","Steinbach Bahnhof Rebland","48.73512753","8.14551876","0480","","","Pde:08211:35113"
"de:08211:35113:5:52","Steinbach Bahnhof Rebland","48.73501495","8.14537503","0480","","","Pde:08211:35113"
"de:08215:1220:1:1","Ettlingen Neuwiesenreben","48.95315788","8.40073911","0230","","","Pde:08215:1220"
"de:08215:1220:2:2","Ettlingen Neuwiesenreben","48.95280984","8.40014622","0230","","","Pde:08215:1220"
"de:08215:1221:1:1","Ettlingen Wasen","48.94557117","8.39868197","0230","","","Pde:08215:1221"
"de:08215:1221:2:3","Ettlingen Wasen","48.94506377","8.39862807","0230","","","Pde:08215:1221"
"de:08215:1221:2:4","Ettlingen Wasen","48.94496937","8.39852926","0230","","","Pde:08215:1221"
"de:08215:1221:3:2","Ettlingen Wasen","48.94504017","8.39880773","0230","","","Pde:08215:1221"
"de:08215:1223:1:1","Ettlingen Erbprinz/Schloss","48.94124044","8.40361372","0230","","","Pde:08215:1223"
"de:08215:1223:1:2","Ettlingen Erbprinz/Schloss","48.94072710","8.40445814","0230","","","Pde:08215:1223"
"de:08215:1223:2:4","Ettlingen Erbprinz / Schloss","48.94055599","8.40444017","0230","","","Pde:08215:1223"
"de:08215:1223:3:3","Ettlingen Erbprinz / Schloss","48.94082741","8.40487136","0230","","","Pde:08215:1223"
"de:08215:1223:4:12","Ettlingen Erbprinz / Schloss","48.94109293","8.40471865","0230","","","Pde:08215:1223"
"de:08215:1223:5:23","Ettlingen Erbprinz / Schloss","48.94029046","8.40368559","0230","","","Pde:08215:1223"
"de:08215:1224:1:1","Ettlingen Am Lindscharren","48.94771869","8.40832089","0230","","","Pde:08215:1224"
"de:08215:1224:1:2","Ettlingen Am Lindscharren","48.94777179","8.40806038","0230","","","Pde:08215:1224"
"de:08215:1231:1:1","Ettlingen Stadt","48.93877400","8.40889581","0230","","","Pde:08215:1231"
"de:08215:1231:1:2","Ettlingen Stadt","48.93872679","8.40886886","0230","","","Pde:08215:1231"
"de:08215:1231:2:11","Ettlingen Stadt","48.93857928","8.40877903","0230","","","Pde:08215:1231"
"de:08215:1231:2:12","Ettlingen Stadt","48.93848486","8.40907548","0230","","","Pde:08215:1231"
"de:08215:1231:2:13","Ettlingen Stadt","48.93840815","8.40932701","0230","","","Pde:08215:1231"
"de:08215:1231:2:14","Ettlingen Stadt","48.93836685","8.40914734","0230","","","Pde:08215:1231"
"de:08215:1231:2:15","Ettlingen Stadt","48.93847896","8.40880598","0230","","","Pde:08215:1231"
"de:08215:1231:4:3","Ettlingen Stadt","48.93847896","8.40946175","0230","","","Pde:08215:1231"
"de:08215:1231:5:4","Ettlingen Stadt","48.93843766","8.40943480","0230","","","Pde:08215:1231"
"de:08215:1235:1:1","Ettlingen Albgaubad","48.93688573","8.41509419","0230","","","Pde:08215:1235"
"de:08215:1235:2:21","Ettlingen Albgaubad","48.93637825","8.41693574","0230","","","Pde:08215:1235"
"de:08215:1235:2:22","Ettlingen Albgaubad","48.93607730","8.41773524","0230","","","Pde:08215:1235"
"de:08215:1235:3:2","Ettlingen Albgaubad","48.93682082","8.41518402","0230","","","Pde:08215:1235"
"de:08215:1235:5:51","Ettlingen Albgaubad","48.93702736","8.41610929","0230","","","Pde:08215:1235"
"de:08215:1237:1:1","Ettlingen Spinnerei","48.93473184","8.44172924","0230","","","Pde:08215:1237"
"de:08215:1237:10:11","Ettlingen Spinnerei (Ersatzhalt)","48.93486167","8.44097465","0230","","","Pde:08215:1237"
"de:08215:1237:10:12","Ettlingen Spinnerei (Ersatzhalt)","48.93479085","8.44099262","0230","","","Pde:08215:1237"
"de:08215:1237:2:2","Ettlingen Spinnerei","48.93440728","8.44251077","0230","","","Pde:08215:1237"
"de:08215:8801:1:1","Ettlingen Englerstraße","48.94640895","8.37680799","0230","","","Pde:08215:8801"
"de:08215:8801:1:2","Ettlingen Englerstraße","48.94616115","8.37659240","0230","","","Pde:08215:8801"
"de:08215:8802:1:1","Ettlingen Am Hardtwald","48.95705698","8.37802970","0230","","",""
"de:08215:8805:0:1","Ettlingen Stadthalle","48.94139975","8.41067448","0230","","",""
"de:08215:8901:0:1","Ettlingen Siemensstraße","48.93942898","8.37801173","0230","","","Pde:08215:8901"
"de:08215:8901:0:2","Ettlingen Siemensstraße","48.93932866","8.37801173","0230","","","Pde:08215:8901"
"de:08215:8902:0:1","Ettlingen Nobelstraße","48.93728700","8.37670019","0230","","","Pde:08215:8902"
"de:08215:8902:0:2","Ettlingen Nobelstraße","48.93696835","8.37682596","0230","","","Pde:08215:8902"
"de:08215:9001:0:1","Ettlingenweier Scheibenhardter Str.","48.93067165","8.38944729","0230","","","Pde:08215:9001"
"de:08215:9001:0:2","Ettlingenweier Scheibenhardter Str.","48.93008148","8.38884542","0230","","","Pde:08215:9001"
"de:08215:9002:0:1","Ettlingenweier Ettlinger Str.","48.92523001","8.38818965","0230","","","Pde:08215:9002"
"de:08215:9002:0:2","Ettlingenweier Ettlinger Str.","48.92549561","8.38816270","0230","","","Pde:08215:9002"
"de:08215:9003:1:1","Schluttenbach Zellmarkstraße","48.89887510","8.40080199","0230","","",""
"de:08215:9004:1:1","Schluttenbach Langenacker","48.89717430","8.40077504","0230","","",""
"de:08215:9005:1:1","Schöllbronn Schwester-Baptista-Str.","48.89766447","8.41552538","0230","","",""
"de:08215:9006:0:1","Ettlingenweier Keltergasse","48.92878308","8.38956407","0230","","","Pde:08215:9006"
"de:08215:9006:0:2","Ettlingenweier Keltergasse","48.92858832","8.38942932","0230","","","Pde:08215:9006"
"de:08215:9007:1:1","Schluttenbach Schönblick","48.89795975","8.39716382","0230","","",""
"de:08215:9012:0:1","Ettlingen Piazza Menfi","48.93711587","8.39542108","0230","","","Pde:08215:9012"
"de:08215:9012:0:2","Ettlingen Piazza Menfi","48.93777087","8.39674161","0230","","","Pde:08215:9012"
"de:08215:9012:0:3","Ettlingen Piazza Menfi","48.93793019","8.39557380","0230","","","Pde:08215:9012"
"de:08215:9014:0:1","Ettlingen Sportpark","48.94082741","8.39145053","0230","","","Pde:08215:9014"
"de:08215:9014:0:2","Ettlingen Sportpark","48.94079791","8.39126188","0230","","","Pde:08215:9014"
"de:08215:9023:0:1","Ettlingen Oberes Albgrün","48.93885661","8.41144703","0230","","",""

"de:08212:10:1:1","Durlach Untermühlstraße","49.00207214","8.45497040","0100","","","Pde:08212:10"
"de:08212:10:1:3","Durlach Untermühlstraße","49.00210161","8.45481769","0100","","","Pde:08212:10"
"de:08212:10:2:2","Durlach Untermühlstraße","49.00191303","8.45577889","0100","","","Pde:08212:10"
"de:08212:10:2:4","Durlach Untermühlstraße","49.00187767","8.45599448","0100","","","Pde:08212:10"
"de:08212:10000:0:1","Karlsruhe Pappelallee","48.99509996","8.33513515","0100","","",""
"de:08212:10001:1:1","Karlsruhe Falterweg","48.99703318","8.33643770","0100","","",""
"de:08212:1001:1:1","KA Durlacher Tor/KIT-Campus Süd (U)","49.00900210","8.41669319","0100","","","Pde:08212:1001"
"de:08212:1001:2:2","KA Durlacher Tor/KIT-Campus Süd (U)","49.00884301","8.41760049","0100","","","Pde:08212:1001"
"de:08212:1001:91:1","KA Durlacher Tor/KIT-Campus Süd (U)","49.00901978","8.41653149","0100","","","Pde:08212:1001"
"de:08212:1001:92:2","KA Durlacher Tor/KIT-Campus Süd (U)","49.00882533","8.41773524","0100","","","Pde:08212:1001"
"de:08212:1002:1:1","Karlsruhe Kronenplatz (U)","49.00935565","8.40998278","0100","","","Pde:08212:1002"
"de:08212:1002:2:2","Karlsruhe Kronenplatz (U)","49.00928494","8.41089906","0100","","","Pde:08212:1002"
"de:08212:1002:91:1","Karlsruhe Kronenplatz (U)","49.00936154","8.40979413","0100","","","Pde:08212:1002"
"de:08212:1002:92:2","Karlsruhe Kronenplatz (U)","49.00928494","8.41107872","0100","","","Pde:08212:1002"
"de:08212:1003:1:1","KA Marktplatz (Kaiserstraße U)","49.00970919","8.40167336","0100","","","Pde:08212:1003"
"de:08212:1003:2:2","KA Marktplatz (Kaiserstraße U)","49.00961491","8.40295795","0100","","","Pde:08212:1003"
"de:08212:1003:91:1","KA Marktplatz (Kaiserstraße U)","49.00972097","8.40153861","0100","","","Pde:08212:1003"
"de:08212:1003:92:2","KA Marktplatz (Kaiserstraße U)","49.00960902","8.40315558","0100","","","Pde:08212:1003"
"de:08212:1004:1:1","KA Europaplatz/Postgalerie (U)","49.01006862","8.39371429","0100","","","Pde:08212:1004"
"de:08212:1004:2:2","KA Europaplatz/Postgalerie (U)","49.00999791","8.39463955","0100","","","Pde:08212:1004"
"de:08212:1004:91:1","KA Europaplatz/Postgalerie (U)","49.01007451","8.39357954","0100","","","Pde:08212:1004"
"de:08212:1004:92:2","KA Europaplatz/Postgalerie (U)","49.00999202","8.39475633","0100","","","Pde:08212:1004"
"de:08212:101:1:1","Karlsruhe Starckstraße","49.01640243","8.35288586","0100","","","Pde:08212:101"
"de:08212:101:2:2","Karlsruhe Starckstraße","49.01603126","8.35284992","0100","","","Pde:08212:101"
"de:08212:101:91:1b","Karlsruhe Starckstraße","49.01716243","8.35286789","0100","","","Pde:08212:101"
"de:08212:101:92:2b","Karlsruhe Starckstraße","49.01648491","8.35284094","0100","","","Pde:08212:101"
"de:08212:1011:3:3","KA Marktplatz (Pyramide U)","49.00830090","8.40376643","0100","","","Pde:08212:1011"
"de:08212:1011:4:4","KA Marktplatz (Pyramide U)","49.00900800","8.40375745","0100","","","Pde:08212:1011"
"de:08212:1011:93:3","KA Marktplatz (Pyramide U)","49.00821251","8.40376643","0100","","","Pde:08212:1011"
"de:08212:1011:94:4","KA Marktplatz (Pyramide U)","49.00911995","8.40376643","0100","","","Pde:08212:1011"
"de:08212:1011:95:5","KA Marktplatz (Pyramide U)","49.00911995","8.40390118","0100","","","Pde:08212:1011"
"de:08212:1012:3:3","KA Ettlinger Tor/Staatstheater (U)","49.00507760","8.40343406","0100","","","Pde:08212:1012"
"de:08212:1012:4:4","KA Ettlinger Tor/Staatstheater (U)","49.00577296","8.40355084","0100","","","Pde:08212:1012"
"de:08212:1012:93:3","KA Ettlinger Tor/Staatstheater (U)","49.00495975","8.40341609","0100","","","Pde:08212:1012"
"de:08212:1012:94:4","KA Ettlinger Tor/Staatstheater (U)","49.00592617","8.40356880","0100","","","Pde:08212:1012"
"de:08212:1013:3:3","Karlsruhe Kongresszentrum (U)","49.00217233","8.40311066","0100","","","Pde:08212:1013"
"de:08212:1013:4:4","Karlsruhe Kongresszentrum (U)","49.00288540","8.40321846","0100","","","Pde:08212:1013"
"de:08212:1013:93:3","Karlsruhe Kongresszentrum (U)","49.00206625","8.40309270","0100","","","Pde:08212:1013"
"de:08212:1013:94:4","Karlsruhe Kongresszentrum (U)","49.00300327","8.40322744","0100","","","Pde:08212:1013"
"de:08212:102:0:1","Karlsruhe Vogesenbrücke","49.00910817","8.35556284","0100","","","Pde:08212:102"
"de:08212:102:0:2","Karlsruhe Vogesenbrücke","49.00975044","8.35476333","0100","","","Pde:08212:102"
"de:08212:103:1:1","Karlsruhe Mühlburg West","49.02047920","8.35056820","0100","","","Pde:08212:103"
"de:08212:103:2:2","Karlsruhe Mühlburg West","49.02016698","8.35084668","0100","","","Pde:08212:103"
"de:08212:104:1:1","Knielingen Siemens","49.02520949","8.34633714","0100","","","Pde:08212:104"
"de:08212:104:2:2","Knielingen Siemens","49.02524484","8.34625629","0100","","","Pde:08212:104"
"de:08212:105:1:1","Knielingen Herweghstraße","49.03066968","8.34096521","0100","","","Pde:08212:105"
"de:08212:105:11:11","Knielingen Herweghstraße","49.03112320","8.34153115","0100","","","Pde:08212:105"
"de:08212:105:12:12","Knielingen Herweghstraße","49.03108786","8.34149522","0100","","","Pde:08212:105"
"de:08212:105:2:2a","Knielingen Herweghstraße","49.02982154","8.34176471","0100","","","Pde:08212:105"
"de:08212:105:92:2b","Knielingen Herweghstraße","49.03013371","8.34145030","0100","","","Pde:08212:105"
"de:08212:106:1:1","Knielingen Eggensteiner Straße","49.03350851","8.33821637","0100","","","Pde:08212:106"
"de:08212:106:11:11","Knielingen Eggensteiner Straße","49.03393844","8.33818942","0100","","","Pde:08212:106"
"de:08212:106:2:2","Knielingen Eggensteiner Straße","49.03319048","8.33846790","0100","","","Pde:08212:106"
"de:08212:107:1:1","Knielingen Rheinbergstraße","49.03534011","8.33615923","0100","","","Pde:08212:107"
"de:08212:107:12:12","Knielingen Rheinbergstraße","49.03532834","8.33631194","0100","","","Pde:08212:107"
"de:08212:107:2:2","Knielingen Rheinbergstraße","49.03491608","8.33671618","0100","","","Pde:08212:107"
"de:08212:107:3:3","Knielingen Rheinbergstraße","49.03489842","8.33665330","0100","","","Pde:08212:107"
"de:08212:11:1:1","Durlach Auer Str./Dr. Schwabe","49.00052809","8.46315406","0100","","","Pde:08212:11"
"de:08212:11:2:2","Durlach Auer Str./Dr. Schwabe","49.00038665","8.46370203","0100","","","Pde:08212:11"
"de:08212:1101:1:1","KA Moltkestr./Städt. Klinikum","49.01571311","8.37517306","0100","","","Pde:08212:1101"
"de:08212:1101:2:2","KA Moltkestr./Städt. Klinikum","49.01537729","8.37510119","0100","","","Pde:08212:1101"
"de:08212:1101:24:24","KA Moltkestr./Städt. Klinikum","49.01508860","8.37467898","0100","","","Pde:08212:1101"
"de:08212:1101:3:3","KA Moltkestr./Städt. Klinikum","49.01523000","8.37420288","0100","","","Pde:08212:1101"
"de:08212:1101:4:4","KA Moltkestr./Städt. Klinikum","49.01518286","8.37469695","0100","","","Pde:08212:1101"
"de:08212:1101:91:1","KA Moltkestr./Städt. Klinikum","49.01523000","8.37416694","0100","","","Pde:08212:1101"
"de:08212:1103:1:1","KA Knielinger Allee/Städt. Klinikum","49.01884735","8.37540662","0100","","","Pde:08212:1103"
"de:08212:1103:2:2","KA Knielinger Allee/Städt. Klinikum","49.01890037","8.37531679","0100","","","Pde:08212:1103"
"de:08212:1103:23:23","KA Knielinger Allee/Städt. Klinikum","49.02039084","8.37241523","0100","","","Pde:08212:1103"
"de:08212:1103:24:24","KA Knielinger Allee/Städt. Klinikum","49.02026123","8.37222658","0100","","","Pde:08212:1103"
"de:08212:1104:1:1","Karlsruhe August-Bebel-Straße","49.02416098","8.37578391","0100","","","Pde:08212:1104"
"de:08212:1104:11:11","Karlsruhe August-Bebel-Straße","49.02433769","8.37536170","0100","","","Pde:08212:1104"
"de:08212:1104:2:2","Karlsruhe August-Bebel-Straße","49.02391946","8.37570306","0100","","","Pde:08212:1104"
"de:08212:1104:22:22","Karlsruhe August-Bebel-Straße","49.02427290","8.37504729","0100","","","Pde:08212:1104"
"de:08212:1105:1:1","Karlsruhe Kurt-Schumacher-Str.","49.03027506","8.37630494","0100","","","Pde:08212:1105"
"de:08212:1105:11:11","Karlsruhe Kurt-Schumacher-Str.","49.02979798","8.37488560","0100","","","Pde:08212:1105"
"de:08212:1105:12:12","Karlsruhe Kurt-Schumacher-Str.","49.02968607","8.37484068","0100","","","Pde:08212:1105"
"de:08212:1105:2:2","Karlsruhe Kurt-Schumacher-Str.","49.02998057","8.37623307","0100","","","Pde:08212:1105"
"de:08212:1106:1:1","Karlsruhe Haus Bethlehem","49.03310213","8.37661935","0100","","","Pde:08212:1106"
"de:08212:1106:2:2","Karlsruhe Haus Bethlehem","49.03325526","8.37658341","0100","","","Pde:08212:1106"
"de:08212:1106:22:22","Karlsruhe Haus Bethlehem","49.03356741","8.37531679","0100","","","Pde:08212:1106"
"de:08212:1106:3:3","Karlsruhe Haus Bethlehem","49.03404445","8.37735596","0100","","","Pde:08212:1106"
"de:08212:1110:1:1","Neureut Welschneureuter Straße","49.04481509","8.37470593","0100","","","Pde:08212:1110"
"de:08212:1110:11:11","Neureut Welschneureuter Straße","49.04469733","8.37333151","0100","","","Pde:08212:1110"
"de:08212:1110:12:12","Neureut Welschneureuter Straße","49.04453834","8.37345728","0100","","","Pde:08212:1110"
"de:08212:1110:2:2","Neureut Welschneureuter Straße","49.04442647","8.37394237","0100","","","Pde:08212:1110"
"de:08212:1110:21:21","Neureut Welschneureuter Straße (Ersatzhalt)","49.04446769","8.37433762","0100","","","Pde:08212:1110"
"de:08212:1110:22:22","Neureut Welschneureuter Straße (Ersatzhalt)","49.04433814","8.37403220","0100","","","Pde:08212:1110"
"de:08212:1111:1:1","Neureut Bärenweg","49.04702311","8.37856869","0100","","","Pde:08212:1111"
"de:08212:1111:2:2","Neureut Bärenweg","49.04718208","8.37878429","0100","","","Pde:08212:1111"
"de:08212:1111:21:23","Neureut Bärenweg","49.04835964","8.38116482","0100","","","Pde:08212:1111"
"de:08212:1111:21:24","Neureut Bärenweg","49.04823011","8.38087736","0100","","","Pde:08212:1111"
"de:08212:1111:3:3","Neureut Bärenweg","49.04719385","8.37914361","0100","","","Pde:08212:1111"
"de:08212:1111:3:4","Neureut Bärenweg","49.04711731","8.37884717","0100","","","Pde:08212:1111"
"de:08212:1114:1:1","Neureut Adolf-Ehrmann-Bad","49.05085010","8.38527911","0100","","","Pde:08212:1114"
"de:08212:1114:2:2","Neureut Adolf-Ehrmann-Bad","49.05040265","8.38443469","0100","","","Pde:08212:1114"
"de:08212:1115:1:1","Neureut Kirchfeld","49.05300486","8.38907898","0100","","","Pde:08212:1115"
"de:08212:1115:2:2","Neureut Kirchfeld","49.05263397","8.38831541","0100","","","Pde:08212:1115"
"de:08212:12:1:1","Karlsruhe Duale Hochschule","49.02725345","8.38618640","0100","","","Pde:08212:12"
"de:08212:12:12:12","Karlsruhe Duale Hochschule","49.02663497","8.38591691","0100","","","Pde:08212:12"
"de:08212:12:2:2","Karlsruhe Duale Hochschule","49.02657018","8.38599776","0100","","","Pde:08212:12"
"de:08212:1201:1:1","Karlsruhe Albtalbahnhof","48.99356159","8.39596007","0100","","","Pde:08212:1201"
"de:08212:1201:2:A","Karlsruhe Albtalbahnhof","48.99383272","8.39551990","0100","","","Pde:08212:1201"
"de:08212:1201:3:2","Karlsruhe Albtalbahnhof","48.99386219","8.39607685","0100","","","Pde:08212:1201"
"de:08212:1201:3:3","Karlsruhe Albtalbahnhof","48.99352033","8.39610380","0100","","","Pde:08212:1201"
"de:08212:1201:34:D","Karlsruhe Albtalbahnhof (Ersatzhalt)","48.99319025","8.39710992","0100","","","Pde:08212:1201"
"de:08212:1201:4:4","Karlsruhe Albtalbahnhof","48.99386219","8.39621160","0100","","","Pde:08212:1201"
"de:08212:1206:1:1","Karlsruhe Dammerstock","48.98468407","8.40364067","0100","","","Pde:08212:1206"
"de:08212:1206:12:12","Karlsruhe Dammerstock","48.98481966","8.40313761","0100","","","Pde:08212:1206"
"de:08212:1206:2:2","Karlsruhe Dammerstock","48.98421245","8.40361372","0100","","","Pde:08212:1206"
"de:08212:1207:0:1","Karlsruhe Schloss Rüppurr","48.98147103","8.40379338","0100","","","Pde:08212:1207"
"de:08212:1207:0:11","Karlsruhe Schloss Rüppurr","48.98104654","8.40365864","0100","","","Pde:08212:1207"
"de:08212:1207:0:2","Karlsruhe Schloss Rüppurr","48.98087557","8.40381135","0100","","","Pde:08212:1207"
"de:08212:1208:0:1","Rüppurr Ostendorfplatz","48.97598776","8.40664104","0100","","","Pde:08212:1208"
"de:08212:1208:0:2","Rüppurr Ostendorfplatz","48.97544529","8.40654223","0100","","","Pde:08212:1208"
"de:08212:1209:0:1","Rüppurr Tulpenstraße","48.97134124","8.40405389","0100","","","Pde:08212:1209"
"de:08212:1209:0:2","Rüppurr Tulpenstraße","48.97088129","8.40404491","0100","","","Pde:08212:1209"
"de:08212:1210:0:1","Rüppurr Battstraße","48.96570352","8.40477255","0100","","","Pde:08212:1210"
"de:08212:1210:0:11","Rüppurr Battstraße","48.96568583","8.40440424","0100","","","Pde:08212:1210"
"de:08212:1210:0:2","Rüppurr Battstraße","48.96492504","8.40482645","0100","","","Pde:08212:1210"
"de:08212:1210:0:4","Rüppurr Battstraße","48.96418193","8.40451204","0100","","","Pde:08212:1210"
"de:08212:1210:0:91","Rüppurr Battstraße (Ersatzhalt)","48.96613404","8.40573374","0100","","","Pde:08212:1210"
"de:08212:1210:0:92","Rüppurr Battstraße (Ersatzhalt)","48.96616352","8.40612002","0100","","","Pde:08212:1210"
"de:08212:1211:0:11","Karlsruhe Erlenweg","48.98265605","8.40870717","0100","","",""
"de:08212:1213:11:11","Rüppurr Heinrich-Heine-Ring","48.96626378","8.40701833","0100","","","Pde:08212:1213"
"de:08212:1213:11:12","Rüppurr Heinrich-Heine-Ring","48.96635224","8.40700935","0100","","","Pde:08212:1213"
"de:08212:1214:11:11","Rüppurr Hegaustraße","48.96670609","8.41143805","0100","","","Pde:08212:1214"
"de:08212:1214:11:12","Rüppurr Hegaustraße","48.96679455","8.41075533","0100","","","Pde:08212:1214"
"de:08212:1215:11:11","Rüppurr Prinzenweg","48.96868758","8.41446537","0100","","","Pde:08212:1215"
"de:08212:1215:11:12","Rüppurr Prinzenweg","48.96870527","8.41441147","0100","","","Pde:08212:1215"
"de:08212:1216:11:11","Rüppurr Märchenring","48.97033877","8.41621708","0100","","","Pde:08212:1216"
"de:08212:1216:11:12","Rüppurr Märchenring","48.97055106","8.41574098","0100","","","Pde:08212:1216"
"de:08212:13:1:1","Neureut-Heide","49.03680064","8.38820761","0100","","","Pde:08212:13"
"de:08212:13:2:2","Neureut-Heide","49.03617050","8.38798303","0100","","","Pde:08212:13"
"de:08212:1510:1:1","Durlach Hubstraße","49.00722846","8.47248755","0100","","","Pde:08212:1510"
"de:08212:1510:2:2","Durlach Hubstraße","49.00708114","8.47201145","0100","","","Pde:08212:1510"
"de:08212:1521:1:1","Grötzingen","49.00606760","8.49293321","0100","","","Pde:08212:1521"
"de:08212:1521:2:11","Grötzingen Bahnhof","49.00608527","8.49347220","0100","","","Pde:08212:1521"
"de:08212:1521:2:12","Grötzingen Bahnhof","49.00612063","8.49344525","0100","","","Pde:08212:1521"
"de:08212:1521:3:2","Grötzingen","49.00606760","8.49279846","0100","","","Pde:08212:1521"
"de:08212:1521:3:3","Grötzingen","49.00612063","8.49238524","0100","","","Pde:08212:1521"
"de:08212:1521:4:13","Grötzingen Bahnhof","49.00661562","8.49271761","0100","","","Pde:08212:1521"
"de:08212:1525:1:1","Grötzingen Oberausstraße","49.00518367","8.50391062","0100","","","Pde:08212:1525"
"de:08212:1525:2:2","Grötzingen Oberausstraße","49.00530153","8.50359621","0100","","","Pde:08212:1525"
"de:08212:1527:0:1","Grötzingen Hl.-Kreuz-Kirche","49.00435277","8.50356028","0100","","","Pde:08212:1527"
"de:08212:1527:0:2","Grötzingen Hl.-Kreuz-Kirche","49.00448242","8.50365909","0100","","","Pde:08212:1527"
"de:08212:16:1:1","Durlach Friedrichschule","48.99933761","8.46855293","0100","","","Pde:08212:16"
"de:08212:16:2:2","Durlach Friedrichschule","48.99927867","8.46892124","0100","","","Pde:08212:16"
"de:08212:1600:1:1","Grötzingen Krappmühlenweg","49.00586724","8.51269614","0100","","","Pde:08212:1600"
"de:08212:1600:1:2","Grötzingen Krappmühlenweg","49.00587313","8.51204936","0100","","","Pde:08212:1600"
"de:08212:1600:2:21","Grötzingen Krappmühlenweg","49.00525439","8.51371124","0100","","","Pde:08212:1600"
"de:08212:1600:2:22","Grötzingen Krappmühlenweg","49.00541350","8.51308242","0100","","","Pde:08212:1600"
"de:08212:1644:1:1","Grötzingen Im Sonnental","49.00182463","8.50284163","0100","","","Pde:08212:1644"
"de:08212:1644:1:2","Grötzingen Im Sonnental","49.00182463","8.50297637","0100","","","Pde:08212:1644"
"de:08212:1644:1:3","Grötzingen Im Sonnental","49.00174212","8.50273383","0100","","","Pde:08212:1644"
"de:08212:17:1:1","Durlach Schlossplatz","48.99912544","8.47375418","0100","","","Pde:08212:17"
"de:08212:17:11:11","Durlach Schlossplatz","48.99902525","8.47448181","0100","","","Pde:08212:17"
"de:08212:17:2:2","Durlach Schlossplatz","48.99913723","8.47429317","0100","","","Pde:08212:17"
"de:08212:1700:1:1","Maxau","49.03598204","8.30783534","0100","","","Pde:08212:1700"
"de:08212:1700:2:2","Maxau","49.03601738","8.30708974","0100","","","Pde:08212:1700"
"de:08212:18:1:1","Durlach Turmberg","48.99987392","8.47851525","0100","","","Pde:08212:18"
"de:08212:18:1:2","Durlach Turmberg","48.99989749","8.47855118","0100","","","Pde:08212:18"
"de:08212:18:1:3","Durlach Turmberg","48.99993285","8.47823677","0100","","","Pde:08212:18"
"de:08212:18:1:4","Durlach Turmberg","49.00025110","8.47787744","0100","","","Pde:08212:18"
"de:08212:18:1:5","Durlach Turmberg","49.00012734","8.47816491","0100","","","Pde:08212:18"
"de:08212:18:1:6","Durlach Turmberg","49.00000947","8.47844338","0100","","","Pde:08212:18"
"de:08212:18:12:9","Durlach Turmberg","48.99943780","8.47868593","0100","","","Pde:08212:18"
"de:08212:18:13:12","Durlach Turmberg","49.00020985","8.47808406","0100","","","Pde:08212:18"
"de:08212:19:1:1","Durlach Karl-Weysser-Straße","48.99867753","8.47671862","0100","","","Pde:08212:19"
"de:08212:19:11:11","Durlach Karl-Weysser-Straße","48.99856555","8.47671862","0100","","","Pde:08212:19"
"de:08212:2002:0:1","Durlach Friedhof","49.00246699","8.48329429","0100","","","Pde:08212:2002"
"de:08212:2002:0:2","Durlach Friedhof","49.00248467","8.48313259","0100","","","Pde:08212:2002"
"de:08212:2003:0:1","Grötzingen Augustenburg","49.00425849","8.49876327","0100","","","Pde:08212:2003"
"de:08212:2003:0:2","Grötzingen Augustenburg","49.00434688","8.49888006","0100","","","Pde:08212:2003"
"de:08212:2004:0:1","Durlach Neßlerstraße","49.00241984","8.48697738","0100","","",""
"de:08212:201:1:1","Karlsruhe Eckenerstraße","49.00576117","8.35044244","0100","","","Pde:08212:201"
"de:08212:201:2:2","Karlsruhe Eckenerstraße","49.00632098","8.35122397","0100","","","Pde:08212:201"
"de:08212:201:21:21","Karlsruhe Eckenerstraße","49.00644473","8.35117007","0100","","","Pde:08212:201"
"de:08212:201:22:22","Karlsruhe Eckenerstraße","49.00625027","8.35128685","0100","","","Pde:08212:201"
"de:08212:201:22:24","Karlsruhe Eckenerstraße","49.00681597","8.35196059","0100","","","Pde:08212:201"
"de:08212:201:23:23","Karlsruhe Eckenerstraße","49.00507760","8.35081973","0100","","","Pde:08212:201"
"de:08212:2016:1:1","Grötzingen LTZ Augustenberg","49.00311524","8.49257388","0100","","","Pde:08212:2016"
"de:08212:2016:1:2","Grötzingen LTZ Augustenberg","49.00323310","8.49256490","0100","","","Pde:08212:2016"
"de:08212:203:1:1","Karlsruhe Rheinhafenstraße","49.00138852","8.34489983","0100","","","Pde:08212:203"
"de:08212:203:2:2","Karlsruhe Rheinhafenstraße","49.00167730","8.34522323","0100","","","Pde:08212:203"
"de:08212:203:22:22","Karlsruhe Rheinhafenstraße","49.00173623","8.34545679","0100","","","Pde:08212:203"
"de:08212:204:1:1","Daxlanden Thomas-Mann-Straße","48.99922563","8.34155810","0100","","","Pde:08212:204"
"de:08212:204:2:2","Daxlanden Thomas-Mann-Straße","48.99904293","8.34136047","0100","","","Pde:08212:204"
"de:08212:205:1:1","Daxlanden Karl-Delisle-Straße","48.99576009","8.33778518","0100","","","Pde:08212:205"
"de:08212:205:11:11","Daxlanden Karl-Delisle-Straße","48.99610784","8.33844095","0100","","","Pde:08212:205"
"de:08212:205:2:2","Daxlanden Karl-Delisle-Straße","48.99630233","8.33837806","0100","","","Pde:08212:205"
"de:08212:206:1:1","Daxlanden Dornröschenweg","48.99251830","8.33506328","0100","","","Pde:08212:206"
"de:08212:206:2:2","Daxlanden Dornröschenweg","48.99312541","8.33556634","0100","","","Pde:08212:206"
"de:08212:206:3:3","Daxlanden Dornröschenweg","48.99145730","8.33416497","0100","","","Pde:08212:206"
"de:08212:209:1:1","Daxlanden Nussbaumweg","48.98914661","8.33300614","0100","","","Pde:08212:209"
"de:08212:209:2:2","Daxlanden Nussbaumweg","48.98961229","8.33337445","0100","","","Pde:08212:209"
"de:08212:2102:0:1","KA-Grötzingen Emil-Arheit-Halle","49.02260583","8.49677800","0100","","",""
"de:08212:2103:0:1","Grötzingen Fröbelstraße","49.00769397","8.49115454","0100","","","Pde:08212:2103"
"de:08212:2103:0:2","Grötzingen Fröbelstraße","49.00773522","8.49105573","0100","","","Pde:08212:2103"
"de:08212:2104:0:11","Grötzingen Rathaus","49.00766451","8.49618511","0100","","","Pde:08212:2104"
"de:08212:2104:0:12","Grötzingen Rathaus","49.00761148","8.49521493","0100","","","Pde:08212:2104"
"de:08212:2104:0:13","Grötzingen Rathaus","49.00750541","8.49486459","0100","","","Pde:08212:2104"
"de:08212:2105:0:1","Grötzingen Karl-Leopold-Straße","49.01082872","8.49506222","0100","","","Pde:08212:2105"
"de:08212:2105:0:2","Grötzingen Karl-Leopold-Straße","49.01083461","8.49500832","0100","","","Pde:08212:2105"
"de:08212:2106:0:1","Grötzingen Nord","49.01517697","8.49419983","0100","","","Pde:08212:2106"
"de:08212:2106:0:2","Grötzingen Nord","49.01461726","8.49413695","0100","","","Pde:08212:2106"
"de:08212:2106:0:4","Grötzingen Nord","49.01467618","8.49420882","0100","","","Pde:08212:2106"
"de:08212:2107:0:1","Grötzingen Büchelbergstraße","49.00567278","8.49565510","0100","","","Pde:08212:2107"
"de:08212:2107:0:2","Grötzingen Büchelbergstraße","49.00565510","8.49560121","0100","","","Pde:08212:2107"
"de:08212:2108:0:1","Grötzingen Staigstraße","49.00286183","8.49789191","0100","","","Pde:08212:2108"
"de:08212:2108:0:2","Grötzingen Staigstraße","49.00293844","8.49786496","0100","","","Pde:08212:2108"
"de:08212:2109:0:1","Grötzingen Gustav-Hofmann-Str.","49.00402277","8.50661455","0100","","","Pde:08212:2109"
"de:08212:2109:0:2","Grötzingen Gustav-Hofmann-Str.","49.00403455","8.50653370","0100","","","Pde:08212:2109"
"de:08212:211:0:1","Karlsruhe Messe","48.98167738","8.32856846","0232","","","Pde:08212:211"
"de:08212:2110:2:3","Grötzingen Ringelberghohl","49.00346293","8.50233857","0100","","","Pde:08212:2110"
"de:08212:2110:2:4","Grötzingen Ringelberghohl","49.00348650","8.50245535","0100","","","Pde:08212:2110"
"de:08212:2111:1:1","Grötzingen Eisenbahnstraße","49.00510117","8.50113483","0100","","",""
"de:08212:2112:1:1","Grötzingen An der Pfinz","49.00592617","8.50196128","0100","","",""
"de:08212:2222:0:1","Stupferich Efeustraße","48.95665588","8.51252547","0100","","","Pde:08212:2222"
"de:08212:2222:0:2","Stupferich Efeustraße","48.95663818","8.51261530","0100","","","Pde:08212:2222"
"de:08212:224:0:1","Rheinstetten Messe Ost","48.97997941","8.33193714","0232","","",""
"de:08212:23:1:1","Neureut Rosmarinweg","49.03563458","8.38551267","0100","","","Pde:08212:23"
"de:08212:23:1:2","Neureut Rosmarinweg","49.03524589","8.38593488","0100","","","Pde:08212:23"
"de:08212:2302:0:1","Durlach Dürrbachstraße","48.99474042","8.48212648","0100","","","Pde:08212:2302"
"de:08212:2302:0:2","Durlach Dürrbachstraße","48.99481705","8.48200071","0100","","","Pde:08212:2302"
"de:08212:2303:0:1","Durlach Lerchenberg","48.99158108","8.48823502","0100","","","Pde:08212:2303"
"de:08212:2303:0:2","Durlach Lerchenberg","48.99142783","8.48825299","0100","","","Pde:08212:2303"
"de:08212:2304:0:1","Durlach Eisenhafengrund","48.98810322","8.49169353","0100","","","Pde:08212:2304"
"de:08212:2304:0:2","Durlach Eisenhafengrund","48.98871629","8.49131624","0100","","","Pde:08212:2304"
"de:08212:2305:0:1","Durlach Thomashof","48.96726044","8.50442266","0100","","","Pde:08212:2305"
"de:08212:2305:0:2","Durlach Thomashof","48.96766146","8.50427893","0100","","","Pde:08212:2305"
"de:08212:2306:0:1","Stupferich Gerberastraße","48.95637864","8.50734219","0100","","","Pde:08212:2306"
"de:08212:2306:0:2","Stupferich Gerberastraße","48.95649661","8.50732422","0100","","","Pde:08212:2306"
"de:08212:2306:0:3","Stupferich Gerberastraße","48.95671486","8.50647980","0100","","","Pde:08212:2306"
"de:08212:2306:0:4","Stupferich Gerberastraße","48.95669127","8.50685710","0100","","","Pde:08212:2306"
"de:08212:2307:0:1","Stupferich Karlsbader Str.","48.95388935","8.50773744","0100","","","Pde:08212:2307"
"de:08212:2307:0:2","Stupferich Karlsbader Str.","48.95423739","8.50876152","0100","","","Pde:08212:2307"
"de:08212:2307:0:3","Stupferich Karlsbader Str.","48.95397194","8.50799796","0100","","","Pde:08212:2307"
"de:08212:231:1:1","Hagsfeld Süd","49.02421988","8.44912237","0100","","","Pde:08212:231"
"de:08212:231:11:4","Hagsfeld Süd","49.02509758","8.44977814","0100","","","Pde:08212:231"
"de:08212:231:12:3","Hagsfeld Süd","49.02486784","8.45000272","0100","","","Pde:08212:231"
"de:08212:231:2:2","Hagsfeld Süd","49.02465579","8.44991289","0100","","","Pde:08212:231"
"de:08212:233:1:1","Hagsfeld Geroldsäcker","49.03290778","8.45535668","0100","","","Pde:08212:233"
"de:08212:233:2:2","Hagsfeld Geroldsäcker","49.03277232","8.45536566","0100","","","Pde:08212:233"
"de:08212:237:1:1","Knielingen Sudetenstraße","49.03054011","8.34512441","0100","","","Pde:08212:237"
"de:08212:237:11:11","Knielingen Sudetenstraße","49.03055778","8.34531306","0100","","","Pde:08212:237"
"de:08212:237:12:12","Knielingen Sudetenstraße","49.03040464","8.34512441","0100","","","Pde:08212:237"
"de:08212:237:2:2","Knielingen Sudetenstraße","49.03028684","8.34553764","0100","","","Pde:08212:237"
"de:08212:238:1:1","Knielingen Pionierstraße","49.03348495","8.34808885","0100","","","Pde:08212:238"
"de:08212:238:11:11","Knielingen Pionierstraße","49.03337305","8.34714562","0100","","","Pde:08212:238"
"de:08212:238:12:12","Knielingen Pionierstraße","49.03331416","8.34718155","0100","","","Pde:08212:238"
"de:08212:238:2:2","Knielingen Pionierstraße","49.03321403","8.34769359","0100","","","Pde:08212:238"
"de:08212:238:23:23","Knielingen Pionierstraße","49.03265452","8.34719952","0100","","","Pde:08212:238"
"de:08212:238:24:24","Knielingen Pionierstraße","49.03340250","8.34780139","0100","","","Pde:08212:238"
"de:08212:239:1:1","Knielingen Egon-Eiermann-Allee","49.03598204","8.35015498","0100","","","Pde:08212:239"
"de:08212:239:11:11","Knielingen Egon-Eiermann-Allee","49.03519288","8.35120601","0100","","","Pde:08212:239"
"de:08212:239:12:12","Knielingen Egon-Eiermann-Allee","49.03505154","8.35129584","0100","","","Pde:08212:239"
"de:08212:239:2:2","Knielingen Egon-Eiermann-Allee","49.03568758","8.35047837","0100","","","Pde:08212:239"
"de:08212:239:23:23","Knielingen Egon-Eiermann-Allee","49.03595260","8.35032566","0100","","","Pde:08212:239"
"de:08212:239:24:24","Knielingen Egon-Eiermann-Allee","49.03565225","8.35037057","0100","","","Pde:08212:239"
"de:08212:240:2:2","Knielingen Nord","49.03774289","8.34778343","0100","","","Pde:08212:240"
"de:08212:240:21:21","Knielingen Nord","49.03849079","8.34697494","0100","","","Pde:08212:240"
"de:08212:26:11:21","Karlsruhe Rheinhafen Nord","49.01710351","8.32049261","0100","","","Pde:08212:26"
"de:08212:3:1:1","KA Durlacher Tor/KIT-Campus Süd","49.00893729","8.41777117","0100","","","Pde:08212:3"
"de:08212:3:11:11","KA Durlacher Tor/KIT-Campus Süd","49.00919066","8.41792388","0100","","","Pde:08212:3"
"de:08212:3:11:13","KA Durlacher Tor/KIT-Campus Süd","49.00939100","8.41845389","0100","","","Pde:08212:3"
"de:08212:3:11:14","KA Durlacher Tor/KIT-Campus Süd","49.00929083","8.41819338","0100","","","Pde:08212:3"
"de:08212:3:12:12","KA Durlacher Tor/KIT-Campus Süd","49.00861320","8.41855270","0100","","","Pde:08212:3"
"de:08212:3:2:2","KA Durlacher Tor/KIT-Campus Süd","49.00873105","8.41873237","0100","","","Pde:08212:3"
"de:08212:3:3:3","KA Durlacher Tor/KIT-Campus Süd","49.00924369","8.41778015","0100","","","Pde:08212:3"
"de:08212:3:4:4","KA Durlacher Tor/KIT-Campus Süd","49.00954420","8.41863355","0100","","","Pde:08212:3"
"de:08212:3002:0:1","Karlsruhe Studentenhaus","49.01144740","8.41814846","0100","","","Pde:08212:3002"
"de:08212:3002:0:2","Karlsruhe Studentenhaus","49.01098192","8.41789693","0100","","","Pde:08212:3002"
"de:08212:3003:0:1","Karlsruhe Pastor-Felke-Straße","49.01555993","8.42228969","0100","","","Pde:08212:3003"
"de:08212:3003:0:2","Karlsruhe Pastor-Felke-Straße","49.01551280","8.42223580","0100","","","Pde:08212:3003"
"de:08212:3004:0:1","Karlsruhe Büchiger Allee","49.01976638","8.42132850","0100","","","Pde:08212:3004"
"de:08212:3004:0:2","Karlsruhe Büchiger Allee","49.01961321","8.42132850","0100","","","Pde:08212:3004"
"de:08212:3005:0:1","Karlsruhe Rintheimer Querallee","49.02552758","8.42459837","0100","","","Pde:08212:3005"
"de:08212:3005:0:2","Karlsruhe Rintheimer Querallee","49.02525662","8.42403243","0100","","","Pde:08212:3005"
"de:08212:3008:0:1","Waldstadt Breslauer Straße","49.02880846","8.43032962","0100","","","Pde:08212:3008"
"de:08212:3008:0:2","Waldstadt Breslauer Straße","49.02905584","8.43047335","0100","","","Pde:08212:3008"
"de:08212:3009:0:1","Waldstadt Schneidemühler Str.","49.03520466","8.43147048","0100","","","Pde:08212:3009"
"de:08212:3009:0:2","Waldstadt Schneidemühler Str.","49.03490431","8.43091352","0100","","","Pde:08212:3009"
"de:08212:3010:0:1","Waldstadt Kolberger Straße","49.03857912","8.43527035","0100","","","Pde:08212:3010"
"de:08212:3010:0:2","Waldstadt Kolberger Straße","49.03825523","8.43477628","0100","","","Pde:08212:3010"
"de:08212:3011:0:1","Waldstadt Elbinger Straße West","49.04121140","8.43842344","0100","","","Pde:08212:3011"
"de:08212:3011:0:2","Waldstadt Elbinger Straße West","49.04092874","8.43798326","0100","","","Pde:08212:3011"
"de:08212:3012:1:1","Waldstadt Europäische Schule","49.04479742","8.44679574","0100","","","Pde:08212:3012"
"de:08212:3012:11:11","Waldstadt Europäische Schule","49.04539801","8.44764015","0100","","","Pde:08212:3012"
"de:08212:3012:2:2","Waldstadt Europäische Schule","49.04533913","8.44729879","0100","","","Pde:08212:3012"
"de:08212:3013:1:1","Hagsfeld Reitschulschlag","49.04252454","8.46080047","0100","","","Pde:08212:3013"
"de:08212:3013:2:2","Hagsfeld Reitschulschlag","49.04326059","8.46087234","0100","","","Pde:08212:3013"
"de:08212:3013:21:21","Hagsfeld Reitschulschlag","49.04327236","8.46053996","0100","","","Pde:08212:3013"
"de:08212:3013:22:22","Hagsfeld Reitschulschlag","49.04324292","8.46065674","0100","","","Pde:08212:3013"
"de:08212:3013:3:3","Hagsfeld Reitschulschlag","49.04407906","8.46106997","0100","","","Pde:08212:3013"
"de:08212:3014:0:1","Karlsruhe Emil-Gött-Straße","49.01329749","8.42069968","0100","","","Pde:08212:3014"
"de:08212:3014:0:2","Karlsruhe Emil-Gött-Straße","49.01337998","8.42069968","0100","","","Pde:08212:3014"
"de:08212:3017:1:1","Waldstadt Elbinger Straße Ost","49.04079330","8.45069442","0100","","","Pde:08212:3017"
"de:08212:3017:2:2","Waldstadt Elbinger Straße Ost","49.04064609","8.45049679","0100","","","Pde:08212:3017"
"de:08212:302:1:1","Daxlanden Mauerweg","49.00780593","8.33900688","0100","","","Pde:08212:302"
"de:08212:302:11:11","Daxlanden Mauerweg","49.00784129","8.33939316","0100","","","Pde:08212:302"
"de:08212:302:2:2","Daxlanden Mauerweg","49.00771165","8.33951892","0100","","","Pde:08212:302"
"de:08212:303:1:1","Daxlanden Ankerstraße","49.00649187","8.33441649","0100","","","Pde:08212:303"
"de:08212:303:2:2","Daxlanden Ankerstraße","49.00672169","8.33481175","0100","","","Pde:08212:303"
"de:08212:303:21:21","Daxlanden Ankerstraße","49.00735809","8.33329360","0100","","","Pde:08212:303"
"de:08212:304:1:1","Daxlanden Kirchplatz","49.00541350","8.33177545","0100","","","Pde:08212:304"
"de:08212:304:2:2","Daxlanden Kirchplatz","49.00523082","8.33236833","0100","","","Pde:08212:304"
"de:08212:304:21:21","Daxlanden Kirchplatz","49.00537814","8.33208087","0100","","","Pde:08212:304"
"de:08212:304:22:22","Daxlanden Kirchplatz","49.00527207","8.33272766","0100","","","Pde:08212:304"
"de:08212:305:1:1","Daxlanden Hammweg","49.00390491","8.32670895","0100","","","Pde:08212:305"
"de:08212:305:2:2","Daxlanden Hammweg","49.00349239","8.32827202","0100","","","Pde:08212:305"
"de:08212:305:22:22","Daxlanden Hammweg","49.00423491","8.32682573","0100","","","Pde:08212:305"
"de:08212:306:1:1","Daxlanden Waidweg","49.00438224","8.32210957","0100","","","Pde:08212:306"
"de:08212:306:11:11","Daxlanden Waidweg","49.00487135","8.32238805","0100","","","Pde:08212:306"
"de:08212:306:2:2","Daxlanden Waidweg","49.00428795","8.32273839","0100","","","Pde:08212:306"
"de:08212:306:21:21","Daxlanden Waidweg","49.00501278","8.32323247","0100","","","Pde:08212:306"
"de:08212:306:3:3","Daxlanden Waidweg","49.00467689","8.32237009","0100","","","Pde:08212:306"
"de:08212:307:1:1","Daxlanden Altrheinbrücke","49.00085812","8.31190471","0100","","","Pde:08212:307"
"de:08212:307:2:2","Daxlanden Altrheinbrücke","49.00083455","8.31194065","0100","","","Pde:08212:307"
"de:08212:307:91:1","Daxlanden Altrheinbrücke","49.00089348","8.31192268","0100","","","Pde:08212:307"
"de:08212:307:92:2","Daxlanden Altrheinbrücke","49.00081687","8.31190471","0100","","","Pde:08212:307"
"de:08212:308:21:21","Daxlanden Rappenwört","48.99942601","8.29476486","0100","","","Pde:08212:308"
"de:08212:308:3:3","Daxlanden Rappenwört","48.99891327","8.29542063","0100","","","Pde:08212:308"
"de:08212:309:1:1","Daxlanden Tierheim","49.00360436","8.31916310","0100","","","Pde:08212:309"
"de:08212:309:2:2","Daxlanden Tierheim","49.00355722","8.31910920","0100","","","Pde:08212:309"
"de:08212:310:1:1","Karlsruhe Dunantstraße","49.01145918","8.43575544","0100","","","Pde:08212:310"
"de:08212:310:2:2","Karlsruhe Dunantstraße","49.01145918","8.43631240","0100","","","Pde:08212:310"
"de:08212:3102:1:1","Hagsfeld Bahnhof","49.02722989","8.45373073","0100","","","Pde:08212:3102"
"de:08212:3102:11:11","Hagsfeld Bahnhof","49.02697661","8.45410802","0100","","","Pde:08212:3102"
"de:08212:3102:12:12","Hagsfeld Bahnhof","49.02697072","8.45430565","0100","","","Pde:08212:3102"
"de:08212:3102:2:2","Hagsfeld Bahnhof","49.02771878","8.45394633","0100","","","Pde:08212:3102"
"de:08212:3103:0:1","Hagsfeld Oberdorfstraße","49.02827246","8.45592262","0100","","","Pde:08212:3103"
"de:08212:3103:0:2","Hagsfeld Oberdorfstraße","49.02825479","8.45581482","0100","","","Pde:08212:3103"
"de:08212:3104:0:1","Hagsfeld Julius-Bender-Straße","49.02907940","8.45676704","0100","","","Pde:08212:3104"
"de:08212:3104:0:2","Hagsfeld Julius-Bender-Straße","49.02931500","8.45711738","0100","","","Pde:08212:3104"
"de:08212:3105:0:1","Hagsfeld Pfizer","49.02356013","8.45326361","0100","","","Pde:08212:3105"
"de:08212:3105:0:2","Hagsfeld Pfizer","49.02359547","8.45324564","0100","","","Pde:08212:3105"
"de:08212:3106:0:1","Hagsfeld An der Tagweide","49.02102707","8.45644364","0100","","","Pde:08212:3106"
"de:08212:3106:0:2","Hagsfeld An der Tagweide","49.02108009","8.45647059","0100","","","Pde:08212:3106"
"de:08212:3106:0:3","Hagsfeld An der Tagweide","49.02082088","8.45785400","0100","","","Pde:08212:3106"
"de:08212:3107:11:2","Hagsfeld Printzstraße","49.02374863","8.46301931","0100","","","Pde:08212:3107"
"de:08212:3107:12:1","Hagsfeld Printzstraße","49.02370151","8.46307321","0100","","","Pde:08212:3107"
"de:08212:3107:13:3","Hagsfeld Printzstraße","49.02444962","8.46141133","0100","","","Pde:08212:3107"
"de:08212:3108:0:1","Hagsfeld Neue Wiesen","49.02052633","8.46097115","0100","","","Pde:08212:3108"
"de:08212:3108:0:2","Hagsfeld Neue Wiesen","49.02050866","8.46099810","0100","","","Pde:08212:3108"
"de:08212:3109:0:1","Hagsfeld Storrenacker Süd","49.01892983","8.46699885","0100","","","Pde:08212:3109"
"de:08212:3109:0:2","Hagsfeld Storrenacker Süd","49.01894750","8.46694495","0100","","","Pde:08212:3109"
"de:08212:3110:0:1","Hagsfeld Storrenacker Mitte","49.02113900","8.46821157","0100","","","Pde:08212:3110"
"de:08212:3110:0:2","Hagsfeld Storrenacker Mitte","49.02087390","8.46799598","0100","","","Pde:08212:3110"
"de:08212:3111:0:1","Hagsfeld Storrenacker Nord","49.02523895","8.47057414","0100","","","Pde:08212:3111"
"de:08212:3111:0:2","Hagsfeld Storrenacker Nord","49.02532730","8.47052923","0100","","","Pde:08212:3111"
"de:08212:3112:0:1","Durlach Breit","49.02077965","8.47788643","0100","","","Pde:08212:3112"
"de:08212:3112:0:2","Durlach Breit","49.02077375","8.47821880","0100","","","Pde:08212:3112"
"de:08212:3112:0:3","Durlach Breit","49.02051455","8.47893746","0100","","","Pde:08212:3112"
"de:08212:3112:0:4","Durlach Breit","49.02038495","8.47887457","0100","","","Pde:08212:3112"
"de:08212:3114:0:1","Durlach Ochsentorstraße","49.00127066","8.47327807","0100","","","Pde:08212:3114"
"de:08212:3114:0:2","Durlach Ochsentorstraße","49.00126476","8.47335892","0100","","","Pde:08212:3114"
"de:08212:3115:0:1","Hagsfeld Nord","49.03462162","8.46013572","0100","","","Pde:08212:3115"
"de:08212:3115:0:2","Hagsfeld Nord","49.03419169","8.46015368","0100","","","Pde:08212:3115"
"de:08212:3116:0:1","Hagsfeld Schwetzinger Straße","49.03108197","8.45885113","0100","","","Pde:08212:3116"
"de:08212:3116:0:2","Hagsfeld Schwetzinger Straße","49.03145303","8.45912062","0100","","","Pde:08212:3116"
"de:08212:3117:0:1","Hagsfeld Elfmorgenbruch","49.01974871","8.46057589","0100","","","Pde:08212:3117"
"de:08212:3117:0:2","Hagsfeld Elfmorgenbruch","49.01986653","8.46036030","0100","","","Pde:08212:3117"
"de:08212:3118:0:1","Grötzingen Weidbruch","49.03393255","8.47374519","0100","","","Pde:08212:3118"
"de:08212:3118:0:2","Grötzingen Weidbruch","49.03376765","8.47361943","0100","","","Pde:08212:3118"
"de:08212:3120:0:1","Durlach An der Fayence","49.00169498","8.47020583","0100","","","Pde:08212:3120"
"de:08212:3120:0:2","Durlach An der Fayence","49.00170676","8.46966684","0100","","","Pde:08212:3120"
"de:08212:3121:0:1","Durlach Am Heegwald","49.01760428","8.47897339","0100","","","Pde:08212:3121"
"de:08212:3121:0:2","Durlach Am Heegwald","49.01768087","8.47864101","0100","","","Pde:08212:3121"
"de:08212:313:1:1","Rintheim Forststraße","49.01395149","8.44198975","0100","","","Pde:08212:313"
"de:08212:313:2:2","Rintheim Forststraße","49.01420483","8.44228619","0100","","","Pde:08212:313"
"de:08212:314:1:1","Rintheim","49.01629049","8.44376841","0100","","","Pde:08212:314"
"de:08212:315:1:1","Karlsruhe Stadtwerke","49.00711650","8.34399253","0100","","","Pde:08212:315"
"de:08212:315:11:11","Karlsruhe Stadtwerke","49.00715775","8.34432491","0100","","","Pde:08212:315"
"de:08212:315:2:2","Karlsruhe Stadtwerke","49.00710471","8.34388474","0100","","","Pde:08212:315"
"de:08212:315:25:25","Karlsruhe Stadtwerke","49.00711060","8.34449559","0100","","","Pde:08212:315"
"de:08212:32:1:1","Grötzingen Paul-Rein-Straße","49.00124708","8.50413520","0100","","","Pde:08212:32"
"de:08212:32:1:2","Grötzingen Paul-Rein-Straße","49.00127066","8.50387469","0100","","","Pde:08212:32"
"de:08212:3205:0:1","Hagsfeld Schäferstraße","49.02848450","8.46115980","0100","","","Pde:08212:3205"
"de:08212:3205:0:2","Hagsfeld Schäferstraße","49.02857874","8.46093522","0100","","","Pde:08212:3205"
"de:08212:3206:0:1","Hagsfeld Brückenstraße","49.02654662","8.46346847","0100","","","Pde:08212:3206"
"de:08212:3206:0:2","Hagsfeld Brückenstraße","49.02700017","8.46399847","0100","","","Pde:08212:3206"
"de:08212:3211:0:1","Grötzingen Pfinzhof","49.03228348","8.47167009","0100","","","Pde:08212:3211"
"de:08212:3211:0:2","Grötzingen Pfinzhof","49.03228348","8.47161619","0100","","","Pde:08212:3211"
"de:08212:3212:0:1","Grötzingen Ohmstraße","49.02735948","8.47281993","0100","","","Pde:08212:3212"
"de:08212:3212:0:2","Grötzingen Ohmstraße","49.02721222","8.47262230","0100","","","Pde:08212:3212"
"de:08212:3213:0:1","Grötzingen Greschbachstraße","49.02975675","8.47311637","0100","","","Pde:08212:3213"
"de:08212:3213:0:2","Grötzingen Greschbachstraße","49.02966840","8.47309841","0100","","","Pde:08212:3213"
"de:08212:3214:0:1","Grötzingen Rossweid","49.03533423","8.47204738","0100","","",""
"de:08212:32586:1:1","Karlsruhe-Knielingen","49.02692360","8.34087538","0100","","","Pde:08212:32586"
"de:08212:32586:2:2","Karlsruhe-Knielingen","49.02639347","8.34150420","0100","","","Pde:08212:32586"
"de:08212:32587:1:1","Karlsruhe-Mühlburg","49.01490006","8.35093651","0100","","","Pde:08212:32587"
"de:08212:32587:2:2","Karlsruhe-Mühlburg","49.01435213","8.35117906","0100","","","Pde:08212:32587"
"de:08212:33:1:1","Grötzingen Fikentscherstraße","49.00174802","8.50717151","0100","","","Pde:08212:33"
"de:08212:33:1:2","Grötzingen Fikentscherstraße","49.00173623","8.50700981","0100","","","Pde:08212:33"
"de:08212:3301:1:1","Hagsfeld Jenaer Straße","49.03573470","8.45612923","0100","","","Pde:08212:3301"
"de:08212:3301:2:2","Hagsfeld Jenaer Straße","49.03614105","8.45628195","0100","","","Pde:08212:3301"
"de:08212:3302:0:1","Hagsfeld Hallesche Allee","49.03480419","8.45414395","0100","","","Pde:08212:3302"
"de:08212:3302:0:2","Hagsfeld Hallesche Allee","49.03491019","8.45334445","0100","","","Pde:08212:3302"
"de:08212:34:1:1","Grötzingen Am Schwalbenloch","49.00064007","8.50076652","0100","","",""
"de:08212:35:1:1","Grötzingen Vogelsang","48.99970890","8.49963464","0100","","",""
"de:08212:37:11:11","Karlsruhe Europaplatz/Postgalerie","49.01006862","8.39311241","0100","","","Pde:08212:37"
"de:08212:37:22:22","Karlsruhe Europaplatz/Postgalerie","49.01033966","8.39348971","0100","","","Pde:08212:37"
"de:08212:37:3:3","KA Europaplatz/Postgalerie","49.00967384","8.39499888","0100","","","Pde:08212:37"
"de:08212:37:4:4","KA Europaplatz/Postgalerie","49.00940868","8.39492701","0100","","","Pde:08212:37"
"de:08212:37:5:5","KA Europaplatz/Postgalerie","49.01008040","8.39366937","0100","","","Pde:08212:37"
"de:08212:37:6:6","KA Europaplatz/Postgalerie","49.01002148","8.39448684","0100","","","Pde:08212:37"
"de:08212:38:3:3","Karlsruhe Kaiserplatz","49.01018057","8.38835134","0100","","","Pde:08212:38"
"de:08212:39:1:1a","Karlsruhe Mühlburger Tor","49.01061660","8.38276382","0100","","","Pde:08212:39"
"de:08212:39:2:2a","Karlsruhe Mühlburger Tor","49.01055179","8.38365315","0100","","","Pde:08212:39"
"de:08212:39:21:21","Karlsruhe Mühlburger Tor","49.01080515","8.38269196","0100","","","Pde:08212:39"
"de:08212:39:22:22","Karlsruhe Mühlburger Tor","49.01048697","8.38226077","0100","","","Pde:08212:39"
"de:08212:39:3:3","Karlsruhe Mühlburger Tor","49.01135312","8.38462333","0100","","","Pde:08212:39"
"de:08212:39:4:4","Karlsruhe Mühlburger Tor","49.01091121","8.38453350","0100","","","Pde:08212:39"
"de:08212:39:91:1b","Karlsruhe Mühlburger Tor","49.01066963","8.38167686","0100","","","Pde:08212:39"
"de:08212:39:92:2b","Karlsruhe Mühlburger Tor","49.01059303","8.38263806","0100","","","Pde:08212:39"
"de:08212:40:1:1","Karlsruhe Schillerstraße","49.00975633","8.37965565","0100","","","Pde:08212:40"
"de:08212:40:2:2","Karlsruhe Schillerstraße","49.01042805","8.37980836","0100","","","Pde:08212:40"
"de:08212:4002:0:11","Durlach Raiherwiesenstraße","48.99745753","8.45872536","0100","","","Pde:08212:4002"
"de:08212:4002:0:12","Durlach Raiherwiesenstraße","48.99797029","8.45849180","0100","","","Pde:08212:4002"
"de:08212:4007:0:11","Durlach Wachhausstraße","48.99275997","8.44879000","0100","","","Pde:08212:4007"
"de:08212:4007:0:12","Durlach Wachhausstraße","48.99253598","8.44835880","0100","","","Pde:08212:4007"
"de:08212:4007:0:13","Durlach Wachhausstraße","48.99218821","8.44879000","0100","","","Pde:08212:4007"
"de:08212:4008:0:11","Durlach Killisfeld","48.99308415","8.44496317","0100","","","Pde:08212:4008"
"de:08212:4008:0:12","Durlach Killisfeld","48.99303700","8.44494521","0100","","","Pde:08212:4008"
"de:08212:401:1:1","Karlsruhe Karl-Wilhelm-Platz","49.01124117","8.42295445","0100","","","Pde:08212:401"
"de:08212:401:2:2","Karlsruhe Karl-Wilhelm-Platz","49.01138847","8.42341259","0100","","","Pde:08212:401"
"de:08212:402:1:1","Karlsruhe Hauptfriedhof","49.01360976","8.42921571","0100","","","Pde:08212:402"
"de:08212:402:11:11","Karlsruhe Hauptfriedhof","49.01328570","8.42824553","0100","","","Pde:08212:402"
"de:08212:402:12:12","Karlsruhe Hauptfriedhof","49.01326214","8.42831739","0100","","","Pde:08212:402"
"de:08212:402:2:2","Karlsruhe Hauptfriedhof","49.01382776","8.43012300","0100","","","Pde:08212:402"
"de:08212:402:3:3","Karlsruhe Hauptfriedhof","49.01299111","8.43116505","0100","","","Pde:08212:402"
"de:08212:402:4:4","Karlsruhe Hauptfriedhof","49.01365100","8.43083267","0100","","","Pde:08212:402"
"de:08212:403:1:1","KA Hirtenweg/Technologiepark","49.01709173","8.43866598","0100","","","Pde:08212:403"
"de:08212:403:2:2","KA Hirtenweg/Technologiepark","49.01751002","8.43946548","0100","","","Pde:08212:403"
"de:08212:403:3:3","KA Hirtenweg/Technologiepark","49.01768087","8.43934870","0100","","","Pde:08212:403"
"de:08212:404:1:1","Rintheim Sinsheimer Straße","49.02072663","8.44465775","0100","","","Pde:08212:404"
"de:08212:404:2:2","Rintheim Sinsheimer Straße","49.02098583","8.44503504","0100","","","Pde:08212:404"
"de:08212:405:1:1","Hagsfeld Fächerbad","49.02530963","8.44805338","0100","","","Pde:08212:405"
"de:08212:405:12:12","Hagsfeld Fächerbad","49.02583977","8.44790965","0100","","","Pde:08212:405"
"de:08212:405:13:13","Hagsfeld Fächerbad","49.02526251","8.44827796","0100","","","Pde:08212:405"
"de:08212:405:14:14","Hagsfeld Fächerbad","49.02519771","8.44858338","0100","","","Pde:08212:405"
"de:08212:405:2:2","Hagsfeld Fächerbad","49.02561005","8.44817914","0100","","","Pde:08212:405"
"de:08212:406:1:1","Waldstadt Im Eichbäumle","49.02957416","8.44782880","0100","","","Pde:08212:406"
"de:08212:406:2:2","Waldstadt Im Eichbäumle","49.02956827","8.44790965","0100","","","Pde:08212:406"
"de:08212:407:1:1","Waldstadt Glogauer Straße","49.03171218","8.44178314","0100","","","Pde:08212:407"
"de:08212:407:2:2","Waldstadt Glogauer Straße","49.03196543","8.44207060","0100","","","Pde:08212:407"
"de:08212:408:1:1","Waldstadt Zentrum","49.03501031","8.44507995","0100","","","Pde:08212:408"
"de:08212:408:11:11","Waldstadt Zentrum","49.03504565","8.44525962","0100","","","Pde:08212:408"
"de:08212:408:2:2","Waldstadt Zentrum","49.03525178","8.44537640","0100","","","Pde:08212:408"
"de:08212:409:1:1","Waldstadt Jägerhaus","49.03681831","8.44691252","0100","","","Pde:08212:409"
"de:08212:409:2:2","Waldstadt Jägerhaus","49.03740133","8.44754134","0100","","","Pde:08212:409"
"de:08212:41:1:1","Karlsruhe Yorckstraße","49.01095835","8.37535272","0100","","","Pde:08212:41"
"de:08212:41:1:1b","Karlsruhe Yorckstraße","49.01096424","8.37515509","0100","","","Pde:08212:41"
"de:08212:41:2:2","Karlsruhe Yorckstraße","49.01088764","8.37619714","0100","","","Pde:08212:41"
"de:08212:41:2:2b","Karlsruhe Yorckstraße","49.01088175","8.37634985","0100","","","Pde:08212:41"
"de:08212:41:21:21","Karlsruhe Yorckstraße","49.01107030","8.37712240","0100","","","Pde:08212:41"
"de:08212:41:22:22","Karlsruhe Yorckstraße","49.01082872","8.37532577","0100","","","Pde:08212:41"
"de:08212:41:3:3","Karlsruhe Yorckstraße","49.01101138","8.37520899","0100","","","Pde:08212:41"
"de:08212:411:1:1","Waldstadt Osteroder Straße","49.04319581","8.44765812","0100","","","Pde:08212:411"
"de:08212:411:2:2","Waldstadt Osteroder Straße","49.04351379","8.44665201","0100","","","Pde:08212:411"
"de:08212:4201:0:11","Karlsruhe Kapellenstraße","49.00695740","8.41354010","0100","","",""
"de:08212:4202:0:11","Durlach Tiefbauamt","48.99672669","8.43236879","0100","","","Pde:08212:4202"
"de:08212:4202:0:12","Durlach Tiefbauamt","48.99656167","8.43350067","0100","","","Pde:08212:4202"
"de:08212:4203:0:11","Durlach Maybachstraße","48.99710390","8.43912412","0100","","","Pde:08212:4203"
"de:08212:4203:0:12","Durlach Maybachstraße","48.99694477","8.43836954","0100","","","Pde:08212:4203"
"de:08212:4204:0:11","Durlach Dieselstraße","48.99627287","8.44505300","0100","","","Pde:08212:4204"
"de:08212:4204:0:12","Durlach Dieselstraße","48.99619035","8.44495419","0100","","","Pde:08212:4204"
"de:08212:4205:0:11","Durlach Ottostraße","48.99523552","8.45033510","0100","","","Pde:08212:4205"
"de:08212:4205:0:12","Durlach Ottostraße","48.99499387","8.45006560","0100","","","Pde:08212:4205"
"de:08212:4205:0:13","Durlach Ottostraße","48.99571294","8.45021832","0100","","","Pde:08212:4205"
"de:08212:4205:0:14","Durlach Ottostraße","48.99561274","8.45025425","0100","","","Pde:08212:4205"
"de:08212:4206:0:11","Durlach Gudrunstraße","48.99656756","8.45519498","0100","","","Pde:08212:4206"
"de:08212:4206:0:12","Durlach Gudrunstraße","48.99656167","8.45548244","0100","","","Pde:08212:4206"
"de:08212:4302:11:11","Durlach Schlesier Straße Ost","48.98628167","8.45969554","0100","","","Pde:08212:4302"
"de:08212:4302:11:12","Durlach Schlesier Straße Ost","48.98575700","8.45908469","0100","","","Pde:08212:4302"
"de:08212:4304:11:11","Durlach Blattwiesenstraße","48.99287785","8.46493272","0100","","","Pde:08212:4304"
"de:08212:4304:11:12","Durlach Blattwiesenstraße","48.99310773","8.46524713","0100","","","Pde:08212:4304"
"de:08212:4305:11:11","Durlach Brühlstraße Mitte","48.98851586","8.46130353","0100","","","Pde:08212:4305"
"de:08212:4305:11:12","Durlach Brühlstraße Mitte","48.98811501","8.46112386","0100","","","Pde:08212:4305"
"de:08212:4307:0:11","Hohenwettersbach Medersbuckel","48.97023262","8.47659285","0100","","","Pde:08212:4307"
"de:08212:4307:0:12","Hohenwettersbach Medersbuckel","48.97096384","8.47604488","0100","","","Pde:08212:4307"
"de:08212:4308:11:11","Durlach Tiefentalstraße","48.97351124","8.47300858","0100","","","Pde:08212:4308"
"de:08212:4308:11:13","Durlach Tiefentalstraße","48.97319283","8.47330502","0100","","","Pde:08212:4308"
"de:08212:4308:12:12","Durlach Tiefentalstraße","48.97324590","8.47361943","0100","","","Pde:08212:4308"
"de:08212:4308:12:14","Durlach Tiefentalstraße","48.97322821","8.47355655","0100","","","Pde:08212:4308"
"de:08212:4309:0:11","Hohenwettersbach Mitte","48.96870527","8.47805711","0100","","","Pde:08212:4309"
"de:08212:4309:0:12","Hohenwettersbach Mitte","48.96819222","8.47843440","0100","","","Pde:08212:4309"
"de:08212:4310:0:11","Hohenwettersbach Rathaus","48.96603378","8.47730252","0100","","","Pde:08212:4310"
"de:08212:4310:0:12","Hohenwettersbach Rathaus","48.96598660","8.47740134","0100","","","Pde:08212:4310"
"de:08212:4312:0:11","Hohenwettersbach Taglöhnergärten","48.96586275","8.47246959","0100","","","Pde:08212:4312"
"de:08212:4312:0:12","Hohenwettersbach Taglöhnergärten","48.96622250","8.47228992","0100","","","Pde:08212:4312"
"de:08212:44:1:1","Karlsruhe Händelstraße","49.01124706","8.36904655","0100","","","Pde:08212:44"
"de:08212:44:2:2","Karlsruhe Händelstraße","49.01119993","8.36955859","0100","","","Pde:08212:44"
"de:08212:44:21:21","Karlsruhe Händelstraße","49.01138847","8.36785179","0100","","","Pde:08212:44"
"de:08212:44:22:22","Karlsruhe Händelstraße","49.01113511","8.36922621","0100","","","Pde:08212:44"
"de:08212:4407:0:1","Durlach Dürrenwettersbacher Str.","48.97201348","8.47354756","0100","","",""
"de:08212:4409:0:11","Bergwald Mitte","48.97170685","8.46828344","0100","","","Pde:08212:4409"
"de:08212:4409:0:12","Bergwald Mitte","48.97175402","8.46838225","0100","","","Pde:08212:4409"
"de:08212:4412:0:1","Bergwald Fridtjof-Nansen-Str.","48.97199579","8.46974769","0100","","",""
"de:08212:4413:0:1","Bergwald Hooverstraße","48.97410680","8.46410627","0100","","",""
"de:08212:4414:0:1","Bergwald Elsa-Brändström-Str.","48.97234370","8.46187845","0100","","",""
"de:08212:4415:0:1","Bergwald Bergwaldschule","48.97123510","8.46787021","0100","","",""
"de:08212:4492:1:1","Durlach Zündhütle","48.98280344","8.46010877","0100","","","Pde:08212:4492"
"de:08212:4492:11:11","Durlach Zündhütle","48.98257941","8.46095318","0100","","","Pde:08212:4492"
"de:08212:4492:12:12","Durlach Zündhütle","48.98266784","8.46073759","0100","","","Pde:08212:4492"
"de:08212:4492:13:13","Durlach Zündhütle","48.98332224","8.46038725","0100","","","Pde:08212:4492"
"de:08212:4492:14:14","Durlach Zündhütle","48.98305694","8.46033335","0100","","","Pde:08212:4492"
"de:08212:4492:2:2","Durlach Zündhütle","48.98242023","8.46094420","0100","","","Pde:08212:4492"
"de:08212:4493:1:1","Durlach Schlesier Straße West","48.98875755","8.45221258","0100","","","Pde:08212:4493"
"de:08212:4493:11:11","Durlach Schlesier Straße West","48.98835081","8.45297614","0100","","","Pde:08212:4493"
"de:08212:4493:12:12","Durlach Schlesier Straße West","48.98837439","8.45290428","0100","","","Pde:08212:4493"
"de:08212:4493:2:2","Durlach Schlesier Straße West","48.98841565","8.45219461","0100","","","Pde:08212:4493"
"de:08212:4494:1:1","Durlach Ostmarkstraße","48.99226484","8.45360497","0100","","","Pde:08212:4494"
"de:08212:4494:11:11","Durlach Ostmarkstraße","48.99169897","8.45250004","0100","","","Pde:08212:4494"
"de:08212:4494:12:12","Durlach Ostmarkstraße","48.99157519","8.45274258","0100","","","Pde:08212:4494"
"de:08212:4494:2:2","Durlach Ostmarkstraße","48.99116847","8.45250004","0100","","","Pde:08212:4494"
"de:08212:4495:1:1","Durlach Ellmendinger Straße","48.99427479","8.45896791","0100","","","Pde:08212:4495"
"de:08212:4495:11:11","Durlach Ellmendinger Straße","48.99413333","8.45933622","0100","","","Pde:08212:4495"
"de:08212:4495:12:12","Durlach Ellmendinger Straße","48.99411564","8.45940808","0100","","","Pde:08212:4495"
"de:08212:4495:2:2","Durlach Ellmendinger Straße","48.99408617","8.45841095","0100","","","Pde:08212:4495"
"de:08212:4496:1:1","Durlach Steiermärker Straße","48.98591617","8.45579685","0100","","","Pde:08212:4496"
"de:08212:4496:11:11","Durlach Steiermärker Straße","48.98570395","8.45645262","0100","","","Pde:08212:4496"
"de:08212:4496:2:2","Durlach Steiermärker Straße","48.98570984","8.45621906","0100","","","Pde:08212:4496"
"de:08212:4497:1:1","Durlach Killisfeldstraße","48.99716873","8.46184252","0100","","","Pde:08212:4497"
"de:08212:4497:11:11","Durlach Killisfeldstraße","48.99714516","8.46220184","0100","","","Pde:08212:4497"
"de:08212:4497:12:12","Durlach Killisfeldstraße","48.99719231","8.46203116","0100","","","Pde:08212:4497"
"de:08212:4497:2:2","Durlach Killisfeldstraße","48.99756362","8.46215693","0100","","","Pde:08212:4497"
"de:08212:4499:1:1","Durlach Gritznerstraße","48.99946137","8.46416017","0100","","","Pde:08212:4499"
"de:08212:4499:2:2","Durlach Gritznerstraße","48.99917848","8.46384576","0100","","","Pde:08212:4499"
"de:08212:45:1:1","Karlsruhe Philippstraße","49.01144740","8.36416870","0100","","","Pde:08212:45"
"de:08212:45:2:2","Karlsruhe Philippstraße","49.01138847","8.36487836","0100","","","Pde:08212:45"
"de:08212:45:21:21","Karlsruhe Philippstraße","49.01151810","8.36452802","0100","","","Pde:08212:45"
"de:08212:45:22:22","Karlsruhe Philippstraße","49.01132955","8.36425853","0100","","","Pde:08212:45"
"de:08212:4500:1:1","Wolfartsweier Nord","48.97915398","8.45884214","0100","","","Pde:08212:4500"
"de:08212:4500:11:11","Wolfartsweier Nord","48.97826958","8.45827621","0100","","","Pde:08212:4500"
"de:08212:4500:11:12","Wolfartsweier Nord","48.97811039","8.45809654","0100","","","Pde:08212:4500"
"de:08212:4503:0:1","Durlach Parkschlössle","48.99542413","8.47520046","0100","","","Pde:08212:4503"
"de:08212:4503:0:2","Durlach Parkschlössle","48.99551844","8.47538013","0100","","","Pde:08212:4503"
"de:08212:4504:1:1","Durlach Rommelstraße","48.99222358","8.47306247","0100","","","Pde:08212:4504"
"de:08212:4504:1:2","Durlach Rommelstraße","48.99227073","8.47321519","0100","","","Pde:08212:4504"
"de:08212:4504:2:3","Durlach Rommelstraße","48.99208211","8.47219111","0100","","","Pde:08212:4504"
"de:08212:4505:1:1","Durlach Max-Liebermann-Straße","48.98807375","8.47015193","0100","","","Pde:08212:4505"
"de:08212:4505:1:2","Durlach Max-Liebermann-Straße","48.98858071","8.47076279","0100","","","Pde:08212:4505"
"de:08212:4508:0:1","Wolfartsweier Mitte","48.97556322","8.45524888","0100","","","Pde:08212:4508"
"de:08212:4508:0:2","Wolfartsweier Mitte","48.97564577","8.45541956","0100","","","Pde:08212:4508"
"de:08212:4509:0:1","Grünwettersbach Rathaus","48.95849621","8.46678325","0100","","","Pde:08212:4509"
"de:08212:4509:0:2","Grünwettersbach Rathaus","48.95823078","8.46681918","0100","","","Pde:08212:4509"
"de:08212:4510:0:1","Grünwettersbach Mitte","48.95500424","8.47032261","0100","","","Pde:08212:4510"
"de:08212:4510:0:2","Grünwettersbach Mitte","48.95522839","8.47036753","0100","","","Pde:08212:4510"
"de:08212:4511:0:1","Grünwettersb. Seniorenresidenz","48.95192497","8.47142754","0100","","","Pde:08212:4511"
"de:08212:4511:0:2","Grünwettersb. Seniorenresidenz","48.95252668","8.47131974","0100","","","Pde:08212:4511"
"de:08212:4512:0:1","Palmbach Kirche","48.94629095","8.48212648","0100","","","Pde:08212:4512"
"de:08212:4512:0:2","Palmbach Kirche","48.94656824","8.48107545","0100","","","Pde:08212:4512"
"de:08212:4514:0:1","Palmbach Im Kloth","48.94736471","8.47812897","0100","","","Pde:08212:4514"
"de:08212:4514:0:2","Palmbach Im Kloth","48.94769509","8.47760795","0100","","","Pde:08212:4514"
"de:08212:4517:0:1","Palmbach Auf der Römerstraße","48.94570686","8.48953758","0100","","","Pde:08212:4517"
"de:08212:4517:0:2","Palmbach Auf der Römerstraße","48.94583666","8.48956453","0100","","","Pde:08212:4517"
"de:08212:4518:0:11","Palmbach Waldenserplatz","48.94565966","8.48502803","0100","","","Pde:08212:4518"
"de:08212:4518:0:12","Palmbach Waldenserplatz","48.94558887","8.48527058","0100","","","Pde:08212:4518"
"de:08212:4523:0:2","Palmbach Rudolf-Link-Straße","48.94419057","8.49005860","0100","","","Pde:08212:4523"
"de:08212:4602:0:1","Durlach Lußstraße","48.99521195","8.47786846","0100","","","Pde:08212:4602"
"de:08212:4602:0:2","Durlach Lußstraße","48.99515890","8.47798524","0100","","","Pde:08212:4602"
"de:08212:4603:0:1","Durlach Käthe-Kollwitz-Straße","48.99311362","8.47861406","0100","","","Pde:08212:4603"
"de:08212:4603:0:2","Durlach Käthe-Kollwitz-Straße","48.99315488","8.47872186","0100","","","Pde:08212:4603"
"de:08212:4604:0:1","Durlach Ernst-Barlach-Straße","48.98926450","8.47900932","0100","","","Pde:08212:4604"
"de:08212:4604:0:2","Durlach Ernst-Barlach-Straße","48.98919376","8.47906322","0100","","","Pde:08212:4604"
"de:08212:4605:0:1","Durlach Max-Beckmann-Straße","48.98792048","8.47749117","0100","","",""
"de:08212:4606:0:1","Durlach Geigersberg","48.98616966","8.47486809","0100","","",""
"de:08212:4607:0:1","Durlach Erich-Heckel-Straße","48.98829186","8.47479622","0100","","",""
"de:08212:4608:0:1","Durlach August-Macke-Straße","48.98734867","8.47245162","0100","","",""
"de:08212:4711:0:1","Stupferich Rieslingstraße","48.95121117","8.50332672","0100","","","Pde:08212:4711"
"de:08212:4711:0:2","Stupferich Rieslingstraße","48.95142354","8.50373096","0100","","","Pde:08212:4711"
"de:08212:4712:0:1","Stupferich Rebgärtenstraße","48.94980713","8.50601268","0100","","","Pde:08212:4712"
"de:08212:4712:0:2","Stupferich Rebgärtenstraße","48.94992511","8.50599471","0100","","","Pde:08212:4712"
"de:08212:4713:0:1","Stupferich Kirche","48.95128196","8.50910288","0100","","","Pde:08212:4713"
"de:08212:4713:0:2","Stupferich Kirche","48.95159462","8.50915678","0100","","","Pde:08212:4713"
"de:08212:4714:0:1","Stupferich Wiesentalstraße","48.95210785","8.51153732","0100","","","Pde:08212:4714"
"de:08212:4715:0:1","Stupferich Rathaus","48.95424329","8.51063002","0100","","","Pde:08212:4715"
"de:08212:4715:0:3","Stupferich Rathaus","48.95377138","8.51060307","0100","","","Pde:08212:4715"
"de:08212:4717:0:1","Stupferich Pfefferäcker","48.95239690","8.50393757","0100","","","Pde:08212:4717"
"de:08212:4717:0:2","Stupferich Pfefferäcker","48.95234381","8.50403639","0100","","","Pde:08212:4717"
"de:08212:4800:0:1","Wolfartsweier Süd","48.97403604","8.45307496","0100","","","Pde:08212:4800"
"de:08212:4800:0:2","Wolfartsweier Süd","48.97418345","8.45341632","0100","","","Pde:08212:4800"
"de:08212:4801:0:21","Wolfartsweier Brücke","48.97223166","8.45094595","0100","","",""
"de:08212:5:1:1","Karlsruhe Synagoge","49.01825823","8.38484791","0100","","","Pde:08212:5"
"de:08212:5:2:2","Karlsruhe Synagoge","49.01756304","8.38491978","0100","","","Pde:08212:5"
"de:08212:5003:1:1","Karlsruhe Barbarossaplatz","48.99500566","8.38883643","0100","","","Pde:08212:5003"
"de:08212:5003:11:11","Karlsruhe Barbarossaplatz","48.99429836","8.39007611","0100","","","Pde:08212:5003"
"de:08212:5003:12:12","Karlsruhe Barbarossaplatz","48.99458718","8.39016594","0100","","","Pde:08212:5003"
"de:08212:5003:2:2","Karlsruhe Barbarossaplatz","48.99489956","8.38989645","0100","","","Pde:08212:5003"
"de:08212:5004:0:1","Karlsruhe Gebhardstraße","48.99299574","8.38944729","0100","","","Pde:08212:5004"
"de:08212:5004:0:2","Karlsruhe Gebhardstraße","48.99287196","8.38918678","0100","","","Pde:08212:5004"
"de:08212:5005:0:1","Karlsruhe Breite Straße","48.99241220","8.38615945","0100","","","Pde:08212:5005"
"de:08212:5005:0:2","Karlsruhe Breite Straße","48.99275407","8.38573725","0100","","","Pde:08212:5005"
"de:08212:5006:0:1","Karlsruhe Neue Anlage Straße","48.98996008","8.38446164","0100","","","Pde:08212:5006"
"de:08212:5006:0:2","Karlsruhe Neue Anlage Straße","48.99060849","8.38481198","0100","","","Pde:08212:5006"
"de:08212:5007:0:1","Karlsruhe Grünwinkler Straße","48.98808554","8.37982633","0100","","","Pde:08212:5007"
"de:08212:5007:0:2","Karlsruhe Grünwinkler Straße","48.98786743","8.38035634","0100","","","Pde:08212:5007"
"de:08212:5008:0:1","Karlsruhe Landgrabenstraße","48.98873397","8.37732901","0100","","","Pde:08212:5008"
"de:08212:5008:0:2","Karlsruhe Landgrabenstraße","48.98866323","8.37737393","0100","","","Pde:08212:5008"
"de:08212:501:1:1","Karlsruhe Rheinhafen","49.01574846","8.34737918","0100","","","Pde:08212:501"
"de:08212:501:2:2","Karlsruhe Rheinhafen","49.01542442","8.34744207","0100","","","Pde:08212:501"
"de:08212:501:2:4","Karlsruhe Rheinhafen","49.01543031","8.34749596","0100","","","Pde:08212:501"
"de:08212:501:3:3","Karlsruhe Rheinhafen","49.01599002","8.34737020","0100","","","Pde:08212:501"
"de:08212:5012:0:1","Oberreut R.-Breitscheid-Staße","48.98693602","8.36073713","0100","","","Pde:08212:5012"
"de:08212:5012:0:2","Oberreut R.-Breitscheid-Staße","48.98711877","8.36099764","0100","","","Pde:08212:5012"
"de:08212:5013:0:1","Oberreut Johanna-Kirchner-Str.","48.98544456","8.35947051","0100","","","Pde:08212:5013"
"de:08212:5013:0:2","Oberreut Johanna-Kirchner-Str.","48.98565089","8.35973102","0100","","","Pde:08212:5013"
"de:08212:5014:0:1","Oberreut Eugen-Geck-Straße","48.98507316","8.35615572","0100","","",""
"de:08212:5015:0:1","Karlsruhe Petergraben","48.98583364","8.37750868","0100","","","Pde:08212:5015"
"de:08212:5015:0:2","Karlsruhe Petergraben","48.98585722","8.37746376","0100","","","Pde:08212:5015"
"de:08212:5016:0:1","Bulach Friedhof","48.98306284","8.37422084","0100","","","Pde:08212:5016"
"de:08212:5016:0:2","Bulach Friedhof","48.98365828","8.37478678","0100","","","Pde:08212:5016"
"de:08212:5017:0:1","Oberreut B.-Lichtenberg-Straße","48.98717772","8.36430344","0100","","","Pde:08212:5017"
"de:08212:503:1:1","Karlsruhe Mühlburger Feld","49.00784718","8.36381835","0100","","","Pde:08212:503"
"de:08212:503:2:2","Karlsruhe Mühlburger Feld","49.00752309","8.36447412","0100","","","Pde:08212:503"
"de:08212:504:1:1","Karlsruhe Kühler Krug","49.00633866","8.36654923","0100","","","Pde:08212:504"
"de:08212:504:11:11","Karlsruhe Kühler Krug","49.00556671","8.36814823","0100","","","Pde:08212:504"
"de:08212:504:12:12","Karlsruhe Kühler Krug","49.00508939","8.36790569","0100","","","Pde:08212:504"
"de:08212:504:13:13","Karlsruhe Kühler Krug","49.00540171","8.36760026","0100","","","Pde:08212:504"
"de:08212:504:2:2","Karlsruhe Kühler Krug","49.00581421","8.36721398","0100","","","Pde:08212:504"
"de:08212:505:1:1","Karlsruhe Hübschstraße","49.00559028","8.37192116","0100","","","Pde:08212:505"
"de:08212:505:11:11","Karlsruhe Hübschstraße","49.00561385","8.37210980","0100","","","Pde:08212:505"
"de:08212:505:12:12","Karlsruhe Hübschstraße","49.00551957","8.37302608","0100","","","Pde:08212:505"
"de:08212:505:2:2","Karlsruhe Hübschstraße","49.00554314","8.37311592","0100","","","Pde:08212:505"
"de:08212:507:1:1","Karlsruhe Lessingstraße","49.00441170","8.38384180","0100","","","Pde:08212:507"
"de:08212:507:2:2","Karlsruhe Lessingstraße","49.00434688","8.38464130","0100","","","Pde:08212:507"
"de:08212:508:1:1","Karlsruhe Otto-Sachs-Straße","49.00339221","8.38954610","0100","","","Pde:08212:508"
"de:08212:508:2:2","Karlsruhe Otto-Sachs-Straße","49.00348650","8.38923169","0100","","","Pde:08212:508"
"de:08212:51:1:1","Karlsruhe Entenfang","49.01054000","8.35916508","0100","","","Pde:08212:51"
"de:08212:51:11:11","Karlsruhe Entenfang","49.01093478","8.35993763","0100","","","Pde:08212:51"
"de:08212:51:12:12","Karlsruhe Entenfang","49.01062249","8.35947949","0100","","","Pde:08212:51"
"de:08212:51:2:2","Karlsruhe Entenfang","49.01096424","8.35989272","0100","","","Pde:08212:51"
"de:08212:51:21:21","Karlsruhe Entenfang","49.01079926","8.35932678","0100","","","Pde:08212:51"
"de:08212:51:22:22","Karlsruhe Entenfang","49.01109387","8.35784456","0100","","","Pde:08212:51"
"de:08212:51:23:23","Karlsruhe Entenfang","49.01089353","8.35815897","0100","","","Pde:08212:51"
"de:08212:51:3:3","Karlsruhe Entenfang","49.01007451","8.35918305","0100","","","Pde:08212:51"
"de:08212:51:4:4","Karlsruhe Entenfang","49.00976222","8.35960525","0100","","","Pde:08212:51"
"de:08212:51:5:5","Karlsruhe Entenfang","49.01101727","8.35777269","0100","","","Pde:08212:51"
"de:08212:51:6:6","Karlsruhe Entenfang","49.01055768","8.35840151","0100","","","Pde:08212:51"
"de:08212:510:1:1","Karlsruhe Konzerthaus","49.00348061","8.39955333","0100","","","Pde:08212:510"
"de:08212:510:2:2","Karlsruhe Konzerthaus","49.00381062","8.40005639","0100","","","Pde:08212:510"
"de:08212:510:2:4","Karlsruhe Konzerthaus","49.00381062","8.39998453","0100","","","Pde:08212:510"
"de:08212:5202:0:1","Karlsruhe Stephanienbad","48.99080890","8.39178291","0100","","","Pde:08212:5202"
"de:08212:5202:0:2","Karlsruhe Stephanienbad","48.99109184","8.39189969","0100","","","Pde:08212:5202"
"de:08212:5203:0:1","Karlsruhe Neckarplatz","48.98732509","8.39406463","0100","","","Pde:08212:5203"
"de:08212:5203:0:2","Karlsruhe Neckarplatz","48.98756679","8.39436107","0100","","","Pde:08212:5203"
"de:08212:5204:0:1","Karlsruhe Weiherhof","48.98566858","8.39275309","0100","","","Pde:08212:5204"
"de:08212:5204:0:2","Karlsruhe Weiherhof","48.98586312","8.39298665","0100","","","Pde:08212:5204"
"de:08212:5205:0:1","Karlsruhe Belchenplatz","48.98229642","8.39036357","0100","","","Pde:08212:5205"
"de:08212:5205:0:2","Karlsruhe Belchenplatz","48.98245560","8.39039950","0100","","","Pde:08212:5205"
"de:08212:5206:0:1","Karlsruhe Links der Alb","48.98390589","8.39594211","0100","","","Pde:08212:5206"
"de:08212:5206:0:2","Karlsruhe Links der Alb","48.98395305","8.39589719","0100","","","Pde:08212:5206"
"de:08212:5207:0:1","Karlsruhe Nürnberger Straße","48.98437162","8.39869994","0100","","","Pde:08212:5207"
"de:08212:5207:0:2","Karlsruhe Nürnberger Straße","48.98440110","8.39842146","0100","","","Pde:08212:5207"
"de:08212:521:1:1","KA Kußmaulstr./Städt. Klinikum","49.01697390","8.36911841","0100","","","Pde:08212:521"
"de:08212:521:2:2","KA Kußmaulstr./Städt. Klinikum","49.01666754","8.36972927","0100","","","Pde:08212:521"
"de:08212:521:23:23","KA Kußmaulstr./Städt. Klinikum","49.01749235","8.36943282","0100","","","Pde:08212:521"
"de:08212:521:91:1","KA Kußmaulstr./Städt. Klinikum","49.01697390","8.36917231","0100","","","Pde:08212:521"
"de:08212:521:92:2","KA Kußmaulstr./Städt. Klinikum","49.01667933","8.36970232","0100","","","Pde:08212:521"
"de:08212:522:1:1","Karlsruhe Hertzstraße","49.02007861","8.36408785","0100","","","Pde:08212:522"
"de:08212:522:11:11","Karlsruhe Hertzstraße","49.02026712","8.36512091","0100","","","Pde:08212:522"
"de:08212:522:12:12","Karlsruhe Hertzstraße","49.02024356","8.36501311","0100","","","Pde:08212:522"
"de:08212:522:2:2","Karlsruhe Hertzstraße","49.01983707","8.36449209","0100","","","Pde:08212:522"
"de:08212:522:23:23","Karlsruhe Hertzstraße","49.02011985","8.36424056","0100","","","Pde:08212:522"
"de:08212:522:24:24","Karlsruhe Hertzstraße","49.01991955","8.36415971","0100","","","Pde:08212:522"
"de:08212:523:1:1","Karlsruhe Feierabendweg","49.02199318","8.36055747","0100","","","Pde:08212:523"
"de:08212:523:11:11","Karlsruhe Feierabendweg","49.02215223","8.36047662","0100","","","Pde:08212:523"
"de:08212:523:12:12","Karlsruhe Feierabendweg","49.02186358","8.36057543","0100","","","Pde:08212:523"
"de:08212:523:2:2","Karlsruhe Feierabendweg","49.02202264","8.36043170","0100","","","Pde:08212:523"
"de:08212:524:1:1","Karlsruhe Neureuter Straße","49.02373096","8.35733252","0100","","","Pde:08212:524"
"de:08212:524:11:11","Karlsruhe Neureuter Straße","49.02348944","8.35798829","0100","","","Pde:08212:524"
"de:08212:524:12:12","Karlsruhe Neureuter Straße","49.02335985","8.35776371","0100","","","Pde:08212:524"
"de:08212:524:2:2","Karlsruhe Neureuter Straße","49.02350711","8.35768286","0100","","","Pde:08212:524"
"de:08212:525:1:1","Knielingen Siemensallee","49.02788371","8.34981362","0100","","","Pde:08212:525"
"de:08212:525:11:11","Knielingen Siemensallee","49.02741838","8.35072990","0100","","","Pde:08212:525"
"de:08212:525:12:12","Knielingen Siemensallee","49.02752441","8.35005616","0100","","","Pde:08212:525"
"de:08212:525:2:2","Knielingen Siemensallee","49.02758331","8.35020888","0100","","","Pde:08212:525"
"de:08212:5504:0:1","Karlsruhe Südendschule","48.99863038","8.38905203","0100","","","Pde:08212:5504"
"de:08212:5504:0:2","Karlsruhe Südendschule","48.99855376","8.38836033","0100","","","Pde:08212:5504"
"de:08212:5508:0:1","KA St. Vincentius Krankenhaus","48.99960871","8.38095821","0100","","","Pde:08212:5508"
"de:08212:5508:0:2","KA St. Vincentius Krankenhaus","48.99942012","8.38077855","0100","","","Pde:08212:5508"
"de:08212:5509:0:1","Karlsruhe Holtzstraße","49.00163604","8.38107499","0100","","","Pde:08212:5509"
"de:08212:5509:0:2","Karlsruhe Holtzstraße","49.00214286","8.38118279","0100","","","Pde:08212:5509"
"de:08212:5513:0:1","Karlsruhe Griesbachstraße","49.00063417","8.36827400","0100","","",""
"de:08212:5514:0:1","Karlsruhe Junker-und-Ruh-Str.","48.99947905","8.36910943","0100","","",""
"de:08212:5515:0:1","Karlsruhe Benzstraße","49.00059881","8.36601923","0100","","","Pde:08212:5515"
"de:08212:5516:0:1","Karlsruhe Liststraße","49.00449420","8.36397107","0100","","",""
"de:08212:58:1:1","Karlsruhe Lameyplatz","49.01322679","8.35447587","0100","","","Pde:08212:58"
"de:08212:58:11:11","Karlsruhe Lameyplatz","49.01344479","8.35435909","0100","","","Pde:08212:58"
"de:08212:58:12:12","Karlsruhe Lameyplatz","49.01296165","8.35487113","0100","","","Pde:08212:58"
"de:08212:58:2:2","Karlsruhe Lameyplatz","49.01304414","8.35500588","0100","","","Pde:08212:58"
"de:08212:58:3:3","Karlsruhe Lameyplatz","49.01326803","8.35450282","0100","","","Pde:08212:58"
"de:08212:6:1:1","Karlsruhe Gottesauer Platz/BGV","49.00757612","8.42455345","0100","","","Pde:08212:6"
"de:08212:6:1:3","Karlsruhe Gottesauer Platz/BGV","49.00760558","8.42438277","0100","","","Pde:08212:6"
"de:08212:6:12:12","Karlsruhe Gottesauer Platz/BGV","49.00715185","8.42407734","0100","","","Pde:08212:6"
"de:08212:6:2:2","Karlsruhe Gottesauer Platz/BGV","49.00740524","8.42528108","0100","","","Pde:08212:6"
"de:08212:6:2:4","Karlsruhe Gottesauer Platz/BGV","49.00735220","8.42555058","0100","","","Pde:08212:6"
"de:08212:6:24:24","Karlsruhe Gottesauer Platz/BGV","49.00738166","8.42503854","0100","","","Pde:08212:6"
"de:08212:6002:0:1","Karlsruhe Blohnstraße","49.00752898","8.35637132","0100","","","Pde:08212:6002"
"de:08212:6002:0:2","Karlsruhe Blohnstraße","49.00744648","8.35559877","0100","","","Pde:08212:6002"
"de:08212:6003:0:1","Grünwinkel Friedhof","49.00533689","8.35602098","0100","","","Pde:08212:6003"
"de:08212:6003:0:2","Grünwinkel Friedhof","49.00576706","8.35613776","0100","","","Pde:08212:6003"
"de:08212:6005:11:11","Karlsruhe West","49.00185409","8.36294699","0100","","","Pde:08212:6005"
"de:08212:6005:11:12","Karlsruhe Westbahnhof","49.00185999","8.36299190","0100","","","Pde:08212:6005"
"de:08212:6006:0:1","Karlsruhe Birkenweg","48.99880129","8.36225528","0100","","","Pde:08212:6006"
"de:08212:6006:0:2","Karlsruhe Birkenweg","48.99877182","8.36233613","0100","","","Pde:08212:6006"
"de:08212:6007:0:1","Karlsruhe Hornisgrindestraße","48.99543592","8.35980288","0100","","","Pde:08212:6007"
"de:08212:6007:0:2","Karlsruhe Hornisgrindestraße","48.99603711","8.35965915","0100","","","Pde:08212:6007"
"de:08212:6007:0:5","Karlsruhe Hornisgrindestraße","48.99600174","8.35974898","0100","","","Pde:08212:6007"
"de:08212:6008:1:1","Karlsruhe Sinner","49.00302684","8.35629945","0100","","","Pde:08212:6008"
"de:08212:6008:1:2","Karlsruhe Sinner","49.00307988","8.35616471","0100","","","Pde:08212:6008"
"de:08212:6008:2:3","Karlsruhe Sinner","49.00208982","8.35407163","0100","","","Pde:08212:6008"
"de:08212:6008:2:4","Karlsruhe Sinner","49.00270272","8.35511368","0100","","","Pde:08212:6008"
"de:08212:6008:23:G","Karlsruhe Sinner","49.00408759","8.35562572","0100","","","Pde:08212:6008"
"de:08212:6009:0:1","Karlsruhe Wattkopfstraße","48.99450466","8.35150245","0100","","","Pde:08212:6009"
"de:08212:6009:0:2","Karlsruhe Wattkopfstraße","48.99464612","8.35175398","0100","","","Pde:08212:6009"
"de:08212:6010:1:1","Karlsruhe Edelbergstraße","48.99683278","8.35402672","0100","","","Pde:08212:6010"
"de:08212:6010:1:2","Karlsruhe Edelbergstraße","48.99691530","8.35411655","0100","","","Pde:08212:6010"
"de:08212:6011:0:1","Karlsruhe Staufenbergweg","48.99100932","8.34697494","0100","","",""
"de:08212:6012:0:1","Karlsruhe Andreas-Hofer-Straße","49.00290898","8.36072815","0100","","","Pde:08212:6012"
"de:08212:6012:0:2","Karlsruhe Andreas-Hofer-Straße","49.00295023","8.36070120","0100","","","Pde:08212:6012"
"de:08212:6017:1:1","Karlsruhe West","49.00209572","8.36300089","0100","","","Pde:08212:6017"
"de:08212:6017:2:2","Karlsruhe West","49.00230787","8.36281224","0100","","","Pde:08212:6017"
"de:08212:602:1:1","Karlsruhe Sophienstraße","49.00751130","8.37906276","0100","","","Pde:08212:602"
"de:08212:602:2:2","Karlsruhe Sophienstraße","49.00774700","8.37927836","0100","","","Pde:08212:602"
"de:08212:603:1:1","Karlsruhe Weinbrennerplatz","49.00513653","8.37783207","0100","","","Pde:08212:603"
"de:08212:603:10:10","Karlsruhe Weinbrennerplatz","49.00505403","8.37855971","0100","","","Pde:08212:603"
"de:08212:603:11:11","Karlsruhe Weinbrennerplatz","49.00566689","8.37675409","0100","","","Pde:08212:603"
"de:08212:603:12:12","Karlsruhe Weinbrennerplatz","49.00555492","8.37772427","0100","","","Pde:08212:603"
"de:08212:603:2:2","Karlsruhe Weinbrennerplatz","49.00542528","8.37785902","0100","","","Pde:08212:603"
"de:08212:603:3:3","Karlsruhe Weinbrennerplatz","49.00565510","8.37617019","0100","","","Pde:08212:603"
"de:08212:603:4:4","Karlsruhe Weinbrennerplatz","49.00565510","8.37717630","0100","","","Pde:08212:603"
"de:08212:603:5:5","Karlsruhe Weinbrennerplatz","49.00596153","8.37793987","0100","","","Pde:08212:603"
"de:08212:603:6:6","Karlsruhe Weinbrennerplatz","49.00631509","8.37823631","0100","","","Pde:08212:603"
"de:08212:603:7:7","Karlsruhe Weinbrennerplatz","49.00554903","8.37829920","0100","","","Pde:08212:603"
"de:08212:603:8:8","Karlsruhe Weinbrennerplatz","49.00540171","8.37869445","0100","","","Pde:08212:603"
"de:08212:603:9:9","Karlsruhe Weinbrennerplatz","49.00473581","8.37832614","0100","","","Pde:08212:603"
"de:08212:604:1:1","Karlsruhe Landesbausparkasse","49.00136495","8.37750868","0100","","","Pde:08212:604"
"de:08212:604:2:2","Karlsruhe Landesbausparkasse","49.00197196","8.37762546","0100","","","Pde:08212:604"
"de:08212:605:1:1","KA Europahalle/Europabad","48.99847714","8.37624205","0100","","","Pde:08212:605"
"de:08212:605:2:2","KA Europahalle/Europabad","48.99908419","8.37641273","0100","","","Pde:08212:605"
"de:08212:605:3:3","KA Europahalle/Europabad","48.99986803","8.37699664","0100","","","Pde:08212:605"
"de:08212:606:1:1","Karlsruhe Bannwaldallee","48.99515301","8.37238828","0100","","","Pde:08212:606"
"de:08212:606:2:2","Karlsruhe Bannwaldallee","48.99528857","8.37275659","0100","","","Pde:08212:606"
"de:08212:607:1:1","Karlsruhe Hardecksiedlung","48.99252419","8.36860637","0100","","","Pde:08212:607"
"de:08212:607:11:11","Karlsruhe Hardecksiedlung","48.99225894","8.36879502","0100","","","Pde:08212:607"
"de:08212:607:11:13","Karlsruhe Hardecksiedlung","48.99226484","8.36878604","0100","","","Pde:08212:607"
"de:08212:607:12:12","Karlsruhe Hardecksiedlung","48.99184633","8.36906451","0100","","","Pde:08212:607"
"de:08212:607:2:2","Karlsruhe Hardecksiedlung","48.99274818","8.36894773","0100","","","Pde:08212:607"
"de:08212:608:1:1","Oberreut Albert-Braun-Straße","48.98897566","8.36322546","0100","","","Pde:08212:608"
"de:08212:608:11:11","Oberreut Albert-Braun-Straße","48.98899334","8.36350394","0100","","","Pde:08212:608"
"de:08212:608:11:12","Oberreut Albert-Braun-Straße","48.98909945","8.36393513","0100","","","Pde:08212:608"
"de:08212:608:2:2","Oberreut Albert-Braun-Straße","48.98922913","8.36377344","0100","","","Pde:08212:608"
"de:08212:609:1:1","Oberreut Zentrum","48.98582774","8.36225528","0100","","","Pde:08212:609"
"de:08212:609:12:12","Oberreut Zentrum","48.98551530","8.36243495","0100","","","Pde:08212:609"
"de:08212:609:2:2","Oberreut Zentrum","48.98567447","8.36233613","0100","","","Pde:08212:609"
"de:08212:61:1:1","KA Karlstor/Bundesgerichtshof","49.00518367","8.39462158","0100","","","Pde:08212:61"
"de:08212:61:2:2","KA Karlstor/Bundesgerichtshof","49.00442349","8.39451379","0100","","","Pde:08212:61"
"de:08212:61:3:3","KA Karlstor/Bundesgerichtshof","49.00550189","8.39542108","0100","","","Pde:08212:61"
"de:08212:61:4:4","KA Karlstor/Bundesgerichtshof","49.00546653","8.39595109","0100","","","Pde:08212:61"
"de:08212:61:91:1","KA Karlstor/Bundesgerichtshof","49.00550189","8.39519651","0100","","","Pde:08212:61"
"de:08212:61:92:2","KA Karlstor/Bundesgerichtshof","49.00548421","8.39637330","0100","","","Pde:08212:61"
"de:08212:610:1:1","Oberreut Wilhelm-Leuschner-Str.","48.98333403","8.36520176","0100","","","Pde:08212:610"
"de:08212:610:12:12","Oberreut Wilhelm-Leuschner-Str.","48.98343425","8.36521074","0100","","","Pde:08212:610"
"de:08212:610:2:2","Oberreut Wilhelm-Leuschner-Str.","48.98365239","8.36452802","0100","","","Pde:08212:610"
"de:08212:611:1:1","Oberreut Badeniaplatz","48.98195448","8.36824705","0100","","","Pde:08212:611"
"de:08212:611:11:11","Oberreut Badeniaplatz","48.98264426","8.36874112","0100","","","Pde:08212:611"
"de:08212:611:12:12","Oberreut Badeniaplatz","48.98233769","8.36830993","0100","","","Pde:08212:611"
"de:08212:611:2:2","Oberreut Badeniaplatz","48.98225515","8.36806738","0100","","","Pde:08212:611"
"de:08212:612:0:1","Oberreut Eva-Maria-Buch-Straße","48.98575111","8.36789670","0100","","",""
"de:08212:62:1:1","Karlsruhe Mathystraße","49.00217233","8.39432514","0100","","","Pde:08212:62"
"de:08212:62:2:2","Karlsruhe Mathystraße","49.00188356","8.39424429","0100","","","Pde:08212:62"
"de:08212:62:3:3","Karlsruhe Mathystraße","49.00265557","8.39322920","0100","","","Pde:08212:62"
"de:08212:62:4:4","Karlsruhe Mathystraße","49.00256128","8.39381310","0100","","","Pde:08212:62"
"de:08212:6205:0:1","Karlsruhe Durmersheimer Straße","49.00040433","8.35040651","0100","","","Pde:08212:6205"
"de:08212:6205:0:2","Karlsruhe Durmersheimer Straße","49.00062239","8.35090956","0100","","","Pde:08212:6205"
"de:08212:6206:1:1","Karlsruhe St. Josef Kirche","48.99842999","8.35015498","0100","","","Pde:08212:6206"
"de:08212:6206:2:2","Karlsruhe St. Josef Kirche","48.99887202","8.34855598","0100","","","Pde:08212:6206"
"de:08212:6207:0:1","Karlsruhe TÜV","48.99659703","8.34834936","0100","","","Pde:08212:6207"
"de:08212:6207:0:2","Karlsruhe TÜV","48.99643789","8.34819665","0100","","","Pde:08212:6207"
"de:08212:6208:0:1","Karlsruhe Eichelbergstraße","48.99348496","8.34507950","0100","","","Pde:08212:6208"
"de:08212:6208:0:2","Karlsruhe Eichelbergstraße","48.99356748","8.34507051","0100","","","Pde:08212:6208"
"de:08212:6209:0:1","Karlsruhe Bernsteinstraße","48.99211158","8.34818767","0100","","","Pde:08212:6209"
"de:08212:6209:0:2","Karlsruhe Bernsteinstraße","48.99205264","8.34822360","0100","","","Pde:08212:6209"
"de:08212:6209:0:3","Karlsruhe Bernsteinstraße","48.99174613","8.34812478","0100","","","Pde:08212:6209"
"de:08212:6209:0:4","Karlsruhe Bernsteinstraße","48.99165182","8.34794512","0100","","","Pde:08212:6209"
"de:08212:621:1:1","Karlsruhe Philipp-Reis-Straße","49.00448831","8.41089906","0100","","","Pde:08212:621"
"de:08212:621:2:2","Karlsruhe Philipp-Reis-Straße","49.00447063","8.41145601","0100","","","Pde:08212:621"
"de:08212:6213:0:1","Karlsruhe Schwimmschulweg","48.99459307","8.36413276","0100","","","Pde:08212:6213"
"de:08212:6213:0:2","Karlsruhe Schwimmschulweg","48.99459307","8.36490531","0100","","","Pde:08212:6213"
"de:08212:6215:0:1","Karlsruhe Windeckstraße","48.99130994","8.37112166","0100","","","Pde:08212:6215"
"de:08212:6215:0:2","Karlsruhe Windeckstraße","48.99116257","8.37067250","0100","","","Pde:08212:6215"
"de:08212:6216:0:1","Bulach West","48.98934703","8.37519102","0100","","","Pde:08212:6216"
"de:08212:6216:0:2","Bulach West","48.98938829","8.37545154","0100","","","Pde:08212:6216"
"de:08212:6217:0:1","Beiertheim West","48.99462254","8.38268297","0100","","","Pde:08212:6217"
"de:08212:6217:0:2","Beiertheim West","48.99510586","8.38261111","0100","","","Pde:08212:6217"
"de:08212:6218:1:1","Karlsruhe Welfenstraße","48.99532983","8.38492876","0100","","","Pde:08212:6218"
"de:08212:6218:11:11","Karlsruhe Welfenstraße","48.99530625","8.38621335","0100","","","Pde:08212:6218"
"de:08212:6218:12:12","Karlsruhe Welfenstraße","48.99508817","8.38624929","0100","","","Pde:08212:6218"
"de:08212:6218:2:2","Karlsruhe Welfenstraße","48.99523552","8.38553962","0100","","","Pde:08212:6218"
"de:08212:622:1:1","Karlsruhe Ostendstraße","49.00513653","8.41601047","0100","","","Pde:08212:622"
"de:08212:622:2:2","Karlsruhe Ostendstraße","49.00497153","8.41654946","0100","","","Pde:08212:622"
"de:08212:6220:0:12","Daxlanden A.-Dosenbach-Straße","49.00206625","8.34297744","0100","","","Pde:08212:6220"
"de:08212:6221:0:1","Daxlanden Agathenstraße","48.99970890","8.33434463","0100","","",""
"de:08212:6222:0:11","Daxlanden Turnerstraße","49.00181873","8.33700364","0100","","",""
"de:08212:6223:0:11","Daxlanden Kirschstraße","49.00167730","8.33337445","0100","","",""
"de:08212:6224:0:22","Daxlanden Pfalzstraße","49.00460028","8.33579092","0100","","",""
"de:08212:6225:0:21","Daxlanden Inselstraße","49.00645062","8.32898169","0100","","",""
"de:08212:623:1:1","Karlsruhe Wolfartsweierer Str.","49.00356311","8.42306225","0100","","","Pde:08212:623"
"de:08212:623:12:12","Karlsruhe Wolfartsweierer Str.","49.00393437","8.42426599","0100","","","Pde:08212:623"
"de:08212:623:2:2","Karlsruhe Wolfartsweierer Str.","49.00339810","8.42363717","0100","","","Pde:08212:623"
"de:08212:623:21:21","Karlsruhe Wolfartsweierer Str.","49.00369276","8.42299936","0100","","","Pde:08212:623"
"de:08212:624:1:1","Karlsruhe Schloss Gottesaue","49.00365151","8.42692500","0100","","","Pde:08212:624"
"de:08212:624:2:2","Karlsruhe Schloss Gottesaue","49.00363383","8.42794908","0100","","","Pde:08212:624"
"de:08212:626:1:1","Karlsruhe Essenweinstraße","49.00931440","8.43186574","0100","","","Pde:08212:626"
"de:08212:626:2:2","Karlsruhe Essenweinstraße","49.01012754","8.43190167","0100","","","Pde:08212:626"
"de:08212:63:1:1","Karlsruhe Kolpingplatz","48.99773454","8.39380412","0100","","","Pde:08212:63"
"de:08212:63:11:11","Karlsruhe Kolpingplatz","48.99788777","8.39382208","0100","","","Pde:08212:63"
"de:08212:63:12:12","Karlsruhe Kolpingplatz","48.99791135","8.39376818","0100","","","Pde:08212:63"
"de:08212:63:2:2","Karlsruhe Kolpingplatz","48.99738680","8.39371429","0100","","","Pde:08212:63"
"de:08212:64:1:1","Karlsruhe Arbeitsagentur","49.00391669","8.38649183","0100","","","Pde:08212:64"
"de:08212:64:2:2","Karlsruhe Arbeitsagentur","49.00324488","8.38638403","0100","","","Pde:08212:64"
"de:08212:65:1:1","Karlsruhe ZKM","48.99979730","8.38607861","0100","","","Pde:08212:65"
"de:08212:65:11:11","Karlsruhe ZKM","48.99885434","8.38378790","0100","","","Pde:08212:65"
"de:08212:65:11:12","Karlsruhe ZKM","48.99871289","8.38449757","0100","","","Pde:08212:65"
"de:08212:65:2:2","Karlsruhe ZKM","48.99898989","8.38594386","0100","","","Pde:08212:65"
"de:08212:7:1:1","KA Tullastraße/Alter Schlachthof","49.00629152","8.43165014","0100","","","Pde:08212:7"
"de:08212:7:2:2","KA Tullastraße/Alter Schlachthof","49.00609706","8.43252151","0100","","","Pde:08212:7"
"de:08212:7:3:3","KA Tullastraße/Alter Schlachthof","49.00612063","8.43253947","0100","","","Pde:08212:7"
"de:08212:7:4:4","KA Tullastraße/Alter Schlachthof","49.00590849","8.43352762","0100","","","Pde:08212:7"
"de:08212:7:5:5","KA Tullastraße/Alter Schlachthof","49.00672169","8.43129081","0100","","","Pde:08212:7"
"de:08212:7:6:6","KA Tullastraße/Alter Schlachthof","49.00733452","8.43154234","0100","","","Pde:08212:7"
"de:08212:7003:1:1","Karlsruhe Kunstakademie/Hochschule","49.01461726","8.38562945","0100","","","Pde:08212:7003"
"de:08212:7003:2:2","Karlsruhe Kunstakademie/Hochschule","49.01412824","8.38568335","0100","","","Pde:08212:7003"
"de:08212:7009:1:1","Karlsruhe Heidehof","49.03167684","8.38712065","0100","","","Pde:08212:7009"
"de:08212:7009:11:11","Karlsruhe Heidehof","49.03122333","8.38702184","0100","","","Pde:08212:7009"
"de:08212:7009:12:12","Karlsruhe Heidehof","49.03152959","8.38703082","0100","","","Pde:08212:7009"
"de:08212:7009:12:13","Karlsruhe Heidehof","49.03045765","8.38709370","0100","","","Pde:08212:7009"
"de:08212:7009:2:2","Karlsruhe Heidehof","49.03104074","8.38693201","0100","","","Pde:08212:7009"
"de:08212:7009:24:24","Karlsruhe Heidehof","49.03126456","8.38734523","0100","","","Pde:08212:7009"
"de:08212:7009:25:25","Karlsruhe Heidehof","49.03112909","8.38678827","0100","","","Pde:08212:7009"
"de:08212:7012:0:1","Neureut Flughafenstraße","49.03614694","8.38052702","0100","","","Pde:08212:7012"
"de:08212:7012:0:2","Neureut Flughafenstraße","49.03613516","8.38064380","0100","","","Pde:08212:7012"
"de:08212:7013:0:1","KA Kaiserslauterner Straße","49.03682420","8.37402321","0100","","","Pde:08212:7013"
"de:08212:7013:0:2","KA Kaiserslauterner Straße","49.03656507","8.37428373","0100","","","Pde:08212:7013"
"de:08212:7013:0:3","KA Kaiserslauterner Straße","49.03624706","8.37432864","0100","","","Pde:08212:7013"
"de:08212:7013:0:4","KA Kaiserslauterner Straße","49.03632951","8.37427474","0100","","","Pde:08212:7013"
"de:08212:7014:0:1","Karlsruhe Schweigener Straße","49.03850846","8.36957655","0100","","","Pde:08212:7014"
"de:08212:7014:0:2","Karlsruhe Schweigener Straße","49.03839657","8.36957655","0100","","","Pde:08212:7014"
"de:08212:7015:0:1","Karlsruhe Weißenburger Straße","49.03709509","8.36716907","0100","","","Pde:08212:7015"
"de:08212:7015:0:2","Karlsruhe Weißenburger Straße","49.03683008","8.36682771","0100","","","Pde:08212:7015"
"de:08212:7016:0:1","Karlsruhe Germersheimer Straße","49.03302557","8.36473463","0100","","","Pde:08212:7016"
"de:08212:7016:0:2","Karlsruhe Germersheimer Straße","49.03274876","8.36497718","0100","","","Pde:08212:7016"
"de:08212:7017:0:1","Karlsruhe Berliner Straße","49.03010426","8.36490531","0100","","","Pde:08212:7017"
"de:08212:7017:0:2","Karlsruhe Berliner Straße","49.03048121","8.36497718","0100","","","Pde:08212:7017"
"de:08212:7017:0:26","Karlsruhe Berliner Straße","49.03085816","8.36325241","0100","","","Pde:08212:7017"
"de:08212:7017:0:3","Karlsruhe Berliner Straße","49.03084638","8.36424954","0100","","","Pde:08212:7017"
"de:08212:7017:0:4","Karlsruhe Berliner Straße","49.03080515","8.36423158","0100","","","Pde:08212:7017"
"de:08212:7018:0:1","Karlsruhe Madenburgweg","49.02717688","8.36535447","0100","","","Pde:08212:7018"
"de:08212:7018:0:2","Karlsruhe Madenburgweg","49.02714743","8.36552515","0100","","","Pde:08212:7018"
"de:08212:7019:0:1","Karlsruhe Barbaraweg","49.02396658","8.36588448","0100","","","Pde:08212:7019"
"de:08212:7019:0:2","Karlsruhe Barbaraweg","49.02396658","8.36603719","0100","","","Pde:08212:7019"
"de:08212:7020:1:1","Neureut Blankenlocher Weg","49.05349350","8.39971503","0100","","","Pde:08212:7020"
"de:08212:7020:1:2","Neureut Blankenlocher Weg","49.05362302","8.39911316","0100","","","Pde:08212:7020"
"de:08212:7021:0:1","Karlsruhe Kärcherstraße","49.01601358","8.36157256","0100","","","Pde:08212:7021"
"de:08212:7021:0:2","Karlsruhe Kärcherstraße","49.01617266","8.36180613","0100","","","Pde:08212:7021"
"de:08212:7023:1:1","Neureut Kirchfeld Fortuna","49.05657238","8.40021809","0100","","","Pde:08212:7023"
"de:08212:7023:1:2","Neureut Kirchfeld Fortuna","49.05642521","8.40023605","0100","","","Pde:08212:7023"
"de:08212:7024:11:1","Neureut Kirchfeld Nord","49.05861505","8.39984978","0100","","","Pde:08212:7024"
"de:08212:7024:11:2","Neureut Kirchfeld Nord","49.05862094","8.39996656","0100","","","Pde:08212:7024"
"de:08212:7024:12:3","Neureut Kirchfeld Nord","49.05932732","8.39975995","0100","","","Pde:08212:7024"
"de:08212:71:1:1","KA Ettlinger Tor/Staatstheater","49.00548421","8.40222133","0100","","","Pde:08212:71"
"de:08212:71:2:2","KA Ettlinger Tor/Staatstheater","49.00546653","8.40298490","0100","","","Pde:08212:71"
"de:08212:71:91:1","KA Ettlinger Tor/Staatstheater","49.00548421","8.40201472","0100","","","Pde:08212:71"
"de:08212:71:92:2","KA Ettlinger Tor/Staatstheater","49.00546064","8.40316456","0100","","","Pde:08212:71"
"de:08212:7101:0:11","Karlsruhe Ohiostraße","49.02996290","8.39387598","0100","","","Pde:08212:7101"
"de:08212:7101:0:12","Karlsruhe Ohiostraße","49.02995112","8.39411853","0100","","","Pde:08212:7101"
"de:08212:7104:0:1","Neureut Waldenserkirche","49.04738227","8.37126539","0100","","","Pde:08212:7104"
"de:08212:7104:0:2","Neureut Waldenserkirche","49.04695245","8.37087013","0100","","","Pde:08212:7104"
"de:08212:7105:0:1","Neureut Bachenweg","49.05042031","8.37528984","0100","","","Pde:08212:7105"
"de:08212:7105:0:2","Neureut Bachenweg","49.05021425","8.37502034","0100","","","Pde:08212:7105"
"de:08212:7106:0:1","Neureut Südschule","49.04540979","8.37080725","0100","","",""
"de:08212:7107:0:1","Neureut Mitteltorstraße","49.05211589","8.37819140","0100","","","Pde:08212:7107"
"de:08212:7107:0:2","Neureut Mitteltorstraße","49.05219242","8.37838903","0100","","","Pde:08212:7107"
"de:08212:7108:0:1","Neureut Kirche","49.05385261","8.38039227","0100","","","Pde:08212:7108"
"de:08212:7108:0:2","Neureut Kirche","49.05400568","8.38058990","0100","","","Pde:08212:7108"
"de:08212:7109:0:1","Neureut Friedhof","49.05787923","8.38499164","0100","","","Pde:08212:7109"
"de:08212:7109:0:2","Neureut Friedhof","49.05733177","8.38460537","0100","","","Pde:08212:7109"
"de:08212:7110:0:1","Neureut Am Zinken","49.05835016","8.38079651","0100","","",""
"de:08212:7111:0:1","Neureut Am Bachkanal","49.06373019","8.37353812","0100","","","Pde:08212:7111"
"de:08212:7111:0:2","Neureut Am Bachkanal","49.06382437","8.37310693","0100","","","Pde:08212:7111"
"de:08212:7112:0:1","Neureut Im Kleinen Bruch","49.06682021","8.36968435","0100","","",""
"de:08212:7113:0:1","Neureut Dammweg","49.06403626","8.37035809","0100","","","Pde:08212:7113"
"de:08212:7113:0:2","Neureut Dammweg","49.06417164","8.37001673","0100","","","Pde:08212:7113"
"de:08212:72:1:1","Karlsruhe Kongresszentrum","49.00385776","8.40358677","0100","","","Pde:08212:72"
"de:08212:72:2:2","Karlsruhe Kongresszentrum","49.00381651","8.40405389","0100","","","Pde:08212:72"
"de:08212:7202:0:1","Neureut Grünewaldstraße","49.04556877","8.38160500","0100","","","Pde:08212:7202"
"de:08212:7202:0:2","Neureut Grünewaldstraße","49.04562176","8.38155110","0100","","","Pde:08212:7202"
"de:08212:7203:0:1","Neureut Spöcker Straße","49.04500351","8.39073188","0100","","","Pde:08212:7203"
"de:08212:7203:0:2","Neureut Spöcker Straße","49.04508006","8.39050730","0100","","","Pde:08212:7203"
"de:08212:7204:0:1","Neureut An der Trift","49.04592205","8.39423531","0100","","","Pde:08212:7204"
"de:08212:7204:0:2","Neureut An der Trift","49.04576896","8.39348072","0100","","","Pde:08212:7204"
"de:08212:7205:0:1","Neureut Moldaustraße","49.04739404","8.39639127","0100","","","Pde:08212:7205"
"de:08212:7205:0:2","Neureut Moldaustraße","49.04735283","8.39623855","0100","","","Pde:08212:7205"
"de:08212:7206:0:1","Neureut Donauschwabenstraße","49.05141529","8.39601397","0100","","","Pde:08212:7206"
"de:08212:7206:0:2","Neureut Donauschwabenstraße","49.05120923","8.39604092","0100","","","Pde:08212:7206"
"de:08212:7207:0:1","Neureut Forlenweg","49.05278115","8.39570855","0100","","","Pde:08212:7207"
"de:08212:7207:0:2","Neureut Forlenweg","49.05277526","8.39560075","0100","","","Pde:08212:7207"
"de:08212:7210:0:2","Neureut Holbeinstraße","49.04678759","8.38270094","0100","","","Pde:08212:7210"
"de:08212:7210:0:22","Neureut Holbeinstraße","49.04671693","8.38273687","0100","","","Pde:08212:7210"
"de:08212:7302:0:1","Karlsruhe Linkenheimer Tor","49.01464672","8.39831366","0100","","","Pde:08212:7302"
"de:08212:7302:0:2","Karlsruhe Linkenheimer Tor","49.01492363","8.39807111","0100","","","Pde:08212:7302"
"de:08212:7303:0:1","Karlsruhe Schützenhaus","49.02385466","8.39684941","0100","","","Pde:08212:7303"
"de:08212:7303:0:2","Karlsruhe Schützenhaus","49.02420221","8.39646313","0100","","","Pde:08212:7303"
"de:08212:7304:0:1","Karlsruhe Am Kanalweg","49.03064612","8.39551990","0100","","","Pde:08212:7304"
"de:08212:7304:0:2","Karlsruhe Am Kanalweg","49.03030451","8.39541210","0100","","","Pde:08212:7304"
"de:08212:7305:0:1","Karlsruhe Weißes Haus","49.03289600","8.39515159","0100","","","Pde:08212:7305"
"de:08212:7305:0:2","Karlsruhe Weißes Haus","49.03327293","8.39493599","0100","","","Pde:08212:7305"
"de:08212:7306:0:1","Neureut Alte Kreisstraße","49.04042821","8.39282495","0100","","","Pde:08212:7306"
"de:08212:7306:0:2","Neureut Alte Kreisstraße","49.04047532","8.39287885","0100","","","Pde:08212:7306"
"de:08212:7307:0:1","Neureut Am Hubengut","49.04221834","8.39051628","0100","","","Pde:08212:7307"
"de:08212:7307:0:2","Neureut Am Hubengut","49.04224778","8.39057018","0100","","","Pde:08212:7307"
"de:08212:74:1:1","Karlsruhe Augartenstraße","48.99847125","8.40371253","0100","","","Pde:08212:74"
"de:08212:74:2:2","Karlsruhe Augartenstraße","48.99896042","8.40355982","0100","","","Pde:08212:74"
"de:08212:74:91:1","Karlsruhe Augartenstraße","48.99831212","8.40378440","0100","","","Pde:08212:74"
"de:08212:74:92:2","Karlsruhe Augartenstraße","48.99913133","8.40347897","0100","","","Pde:08212:74"
"de:08212:7402:0:1","Karlsruhe Stresemannstraße","49.02634046","8.37458017","0100","","","Pde:08212:7402"
"de:08212:7402:0:2","Karlsruhe Stresemannstraße","49.02621676","8.37444542","0100","","","Pde:08212:7402"
"de:08212:7404:0:1","Karlsruhe Landauer Straße","49.03128222","8.37044792","0100","","","Pde:08212:7404"
"de:08212:7404:0:2","Karlsruhe Landauer Straße","49.03062257","8.36991791","0100","","","Pde:08212:7404"
"de:08212:7404:0:4","Karlsruhe Landauer Straße","49.03125867","8.37025927","0100","","","Pde:08212:7404"
"de:08212:7405:0:1","Karlsruhe Frankenthaler Straße","49.03407390","8.37064555","0100","","","Pde:08212:7405"
"de:08212:7405:0:2","Karlsruhe Frankenthaler Straße","49.03402090","8.37053775","0100","","","Pde:08212:7405"
"de:08212:7405:0:23","Karlsruhe Frankenthaler Straße","49.03445671","8.37038504","0100","","","Pde:08212:7405"
"de:08212:7405:0:24","Karlsruhe Frankenthaler Straße","49.03433304","8.37044792","0100","","","Pde:08212:7405"
"de:08212:7406:0:1","Karlsruhe Trierer Straße","49.03535189","8.37272066","0100","","","Pde:08212:7406"
"de:08212:7406:0:2","Karlsruhe Trierer Straße","49.03524589","8.37242421","0100","","","Pde:08212:7406"
"de:08212:7407:0:21","Karlsruhe Pirmasenser Straße","49.03491608","8.36489633","0100","","","Pde:08212:7407"
"de:08212:7407:0:22","Karlsruhe Pirmasenser Straße","49.03488075","8.36544430","0100","","","Pde:08212:7407"
"de:08212:7412:0:1","Karlsruhe Binger Straße","49.03115265","8.36135697","0100","","","Pde:08212:7412"
"de:08212:7412:0:2","Karlsruhe Binger Straße","49.03121744","8.36045865","0100","","","Pde:08212:7412"
"de:08212:7413:0:1","Knielingen Husarenlager","49.03289600","8.35531131","0100","","","Pde:08212:7413"
"de:08212:7413:0:2","Knielingen Husarenlager","49.03296078","8.35476333","0100","","","Pde:08212:7413"
"de:08212:7416:0:1","Knielingen Landeckstraße","49.03666519","8.34282472","0100","","","Pde:08212:7416"
"de:08212:7416:0:2","Knielingen Landeckstraße","49.03657096","8.34288761","0100","","","Pde:08212:7416"
"de:08212:7417:0:1","Knielingen Reinmuthstraße","49.03492786","8.34062385","0100","","","Pde:08212:7417"
"de:08212:7417:0:2","Knielingen Reinmuthstraße","49.03484541","8.34046216","0100","","","Pde:08212:7417"
"de:08212:7501:0:1","Knielingen Jakob-Dörr-Straße","49.03670052","8.33685093","0100","","","Pde:08212:7501"
"de:08212:7501:0:2","Knielingen Jakob-Dörr-Straße","49.03665930","8.33654550","0100","","","Pde:08212:7501"
"de:08212:7502:0:1","Knielingen Elsternweg","49.03791367","8.33922248","0100","","",""
"de:08212:7503:0:1","Knielingen Kolbengärten","49.03980989","8.34174675","0100","","",""
"de:08212:7505:0:1","Knielingen Bruchweg","49.03949778","8.33508125","0100","","",""
"de:08212:7506:0:1","Knielingen Max-Dortu-Straße","49.04161771","8.33862061","0100","","",""
"de:08212:798:1:1","Durlach Pfinztalstraße","48.99995054","8.46526510","0100","","","Pde:08212:798"
"de:08212:798:2:2","Durlach Pfinztalstraße","48.99969711","8.46615443","0100","","","Pde:08212:798"
"de:08212:799:3:3","Durlach Pforzheimer Straße","49.00038076","8.46521120","0100","","",""
"de:08212:8:1:1","Karlsruhe Lilienthalstraße","49.02268241","8.38522521","0100","","","Pde:08212:8"
"de:08212:8:2:2","Karlsruhe Lilienthalstraße","49.02212278","8.38505453","0100","","","Pde:08212:8"
"de:08212:80:1:1","Karlsruhe Kronenplatz","49.00868391","8.41003667","0100","","","Pde:08212:80"
"de:08212:80:2:2","Karlsruhe Kronenplatz","49.00899621","8.41010854","0100","","","Pde:08212:80"
"de:08212:801:4:2","Karlsruhe-Durlach","49.00207214","8.46259710","0100","","","Pde:08212:801"
"de:08212:802:11:11","Durlach Bahnhof","49.00270272","8.46282168","0100","","","Pde:08212:802"
"de:08212:802:12:12","Durlach Bahnhof","49.00256717","8.46241744","0100","","","Pde:08212:802"
"de:08212:802:13:13","Durlach Bahnhof","49.00394616","8.46582205","0100","","","Pde:08212:802"
"de:08212:802:31:A","Durlach Bahnhof","49.00114690","8.46242642","0100","","","Pde:08212:802"
"de:08212:802:32:B","Durlach Bahnhof","49.00145335","8.46245337","0100","","","Pde:08212:802"
"de:08212:802:33:C","Durlach Bahnhof","49.00141799","8.46234557","0100","","","Pde:08212:802"
"de:08212:802:34:D","Durlach Bahnhof","49.00137674","8.46225574","0100","","","Pde:08212:802"
"de:08212:802:35:E","Durlach Bahnhof","49.00134138","8.46216591","0100","","","Pde:08212:802"
"de:08212:83:1:1","Karlsruhe Werderstraße","49.00015091","8.41060261","0100","","","Pde:08212:83"
"de:08212:83:2:2","Karlsruhe Werderstraße","49.00081687","8.41062058","0100","","","Pde:08212:83"
"de:08212:84:1:1","Karlsruhe Tivoli","48.99664418","8.41040498","0100","","","Pde:08212:84"
"de:08212:84:2:2","Karlsruhe Tivoli","48.99697424","8.41069244","0100","","","Pde:08212:84"
"de:08212:84:3:3","Karlsruhe Tivoli","48.99676206","8.41069244","0100","","","Pde:08212:84"
"de:08212:85:1:1","Karlsruhe Rüppurrer Tor","49.00482421","8.41036905","0100","","","Pde:08212:85"
"de:08212:85:2:2","Karlsruhe Rüppurrer Tor","49.00564332","8.41037803","0100","","","Pde:08212:85"
"de:08212:85:3:3","Karlsruhe Rüppurrer Tor","49.00584367","8.40881497","0100","","","Pde:08212:85"
"de:08212:85:4:4","Karlsruhe Rüppurrer Tor","49.00590849","8.40959650","0100","","","Pde:08212:85"
"de:08212:85:91:1","Karlsruhe Rüppurrer Tor","49.00582010","8.40856344","0100","","","Pde:08212:85"
"de:08212:85:92:2","Karlsruhe Rüppurrer Tor","49.00593206","8.40980311","0100","","","Pde:08212:85"
"de:08212:88:0:11","Karlsruhe Hauptbahnhof Süd","48.99179328","8.40127810","0100","","","Pde:08212:88"
"de:08212:88:0:12","Karlsruhe Hbf Südausgang","48.99170487","8.40125115","0100","","","Pde:08212:88"
"de:08212:89:1:4","KA Hauptbahnhof (Vorplatz)","48.99431605","8.39916706","0100","","","Pde:08212:89"
"de:08212:89:1:E1","Karlsruhe Hauptbahnhof (Vorplatz)","48.99461075","8.39997554","0100","","","Pde:08212:89"
"de:08212:89:1:E2","KA Hauptbahnhof (Vorplatz)","48.99448698","8.39945452","0100","","","Pde:08212:89"
"de:08212:89:1:E3","Karlsruhe Hauptbahnhof (Vorplatz)","48.99448108","8.39942757","0100","","","Pde:08212:89"
"de:08212:89:1:F","KA Hauptbahnhof (Vorplatz)","48.99433962","8.39924791","0100","","","Pde:08212:89"
"de:08212:89:3:1","KA Hauptbahnhof (Vorplatz)","48.99441035","8.40009232","0100","","","Pde:08212:89"
"de:08212:89:4:2","KA Hauptbahnhof (Vorplatz)","48.99445750","8.40005639","0100","","","Pde:08212:89"
"de:08212:89:5:3","KA Hauptbahnhof (Vorplatz)","48.99427479","8.39919401","0100","","","Pde:08212:89"
"de:08212:89:6:24","Karlsruhe Hauptbahnhof (Vorplatz)","48.99452234","8.39937367","0100","","","Pde:08212:89"
"de:08212:89:7:M","KA Hauptbahnhof (Vorplatz)","48.99479936","8.40070318","0100","","","Pde:08212:89"
"de:08212:9:1:1","Karlsruhe Weinweg","49.00450010","8.44111838","0100","","","Pde:08212:9"
"de:08212:9:1:3","Karlsruhe Weinweg","49.00454724","8.44085787","0100","","","Pde:08212:9"
"de:08212:9:2:2","Karlsruhe Weinweg","49.00431152","8.44196280","0100","","","Pde:08212:9"
"de:08212:9:2:4","Karlsruhe Weinweg","49.00428795","8.44210653","0100","","","Pde:08212:9"
"de:08212:90:5:7","Karlsruhe Hauptbahnhof","48.99331992","8.40142183","0100","","","Pde:08212:90"
"de:08212:90003:1:1","Durlach Turmberg Talstation","48.99839463","8.48092273","0100","","","Pde:08212:90003"
"de:08212:9009:2:2",".","49.00764683","8.43629443","0100","","","Pde:08212:9009"
"de:08212:9021:1:1","Karlsruhe Einfahrt über Gl. 21","49.00767629","8.43365338","0100","","",""
"de:08212:9022:2:2","Karlsruhe Ausfahrt über Gl. 22","49.00781182","8.43312338","0100","","",""
"de:08212:9030:0:1","Hagsfeld Weglangstraße","49.02655840","8.45570702","0100","","",""
"de:08212:9031:0:1","Hagsfeld Ruschgraben","49.02896160","8.45806959","0100","","",""
"de:08212:9043:2:2","Karlsruhe Historisches Depot 1913","49.00700454","8.43425525","0100","","",""
"de:08212:9044:1:1","Karlsruhe Ausfahrt über Gl. 44","49.00652723","8.43407559","0100","","",""
"de:08212:9088:1:1","Karlsruhe Bh Gerwigstraße (Gleis 88)","49.00748773","8.43668071","0100","","",""
"de:08212:91:1:1","Karlsruhe Ebertstraße","48.99458718","8.39467548","0100","","","Pde:08212:91"
"de:08212:91:1:2","Karlsruhe Ebertstraße","48.99452823","8.39515159","0100","","","Pde:08212:91"
"de:08212:91:11:11","Karlsruhe Ebertstraße","48.99455181","8.39526837","0100","","","Pde:08212:91"
"de:08212:91:11:12","Karlsruhe Ebertstraße","48.99449876","8.39555583","0100","","","Pde:08212:91"
"de:08212:91004:0:1","Grünwettersb. H.-Barth-Schule","48.95357081","8.47673658","0100","","",""
"de:08212:91006:12:12","Oberreut Realschule","48.99306647","8.36136595","0100","","",""
"de:08212:98:1:1","Karlsruhe Poststraße","48.99504102","8.40306575","0100","","","Pde:08212:98"
"de:08212:98:11:11","Karlsruhe Poststraße","48.99509996","8.40302982","0100","","","Pde:08212:98"
"de:08212:98:12:12","Karlsruhe Poststraße","48.99492903","8.40292202","0100","","","Pde:08212:98"
"de:08212:98:2:2","Karlsruhe Poststraße","48.99524731","8.40396406","0100","","","Pde:08212:98"
"de:08212:991:2:2","Karlsruhe Betriebshof West","49.02356013","8.33685991","0100","","","Pde:08212:991"
